,index,순번,구,가맹점,주소,동,경도,위도
0,8,33920,동구,음주측정,대전광역시 동구 백룡로 19,자양동,127.449215927503,36.3357474657875
1,11,17663,동구,(ACE)에이스 전자저울,대전광역시 동구 동서대로1730번길 28,가양동,127.442301899399,36.3487943176213
2,13,19077,동구,(동진보석),대전광역시 동구 가양1동 318 홍명상가 C-33호,가양동,0,0
3,14,16900,동구,(본만쥬)김양경김밥.초봉김밥,대전광역시 동구 한남로 5 ,홍도동,127.427708898083,36.3512550150935
4,15,36941,동구,(사)대전광역시관광협회,대전광역시 동구 중앙로 187-1,중동,127.429990336623,36.3304821392913
5,20,39448,동구,(사)무주천마사업단,대전광역시 동구 중앙로지하 200,중동,127.431162001818,36.330664101385
6,22,39057,동구,(사)중앙시장활성화구역 상인회,대전광역시 동구 대전로779번길 8,원동,127.432864798719,36.3295733809623
7,24,22151,동구,(신)  중앙가방,대전광역시 동구 중앙로194번길 15 ,중동,127.431278905558,36.329848475541
8,35,10365,동구,(주)  다경물류,대전광역시 동구 대전로 408,가오동,127.455478691786,36.3033371725485
9,44,18986,동구,(주)  으뜸자동차,대전광역시 동구 대전로 261,대성동,36.3451828,127.419951
10,55,37939,동구,(주) 다산,대전광역시 동구 태전로 113-1 ,삼성동,127.423279514862,36.3386702067972
11,72,36021,동구,(주) 익선다다 볕,대전광역시 동구 수향2길 7 ,소제동,127.437032449152,36.3356637703585
12,87,36578,동구,(주)경주상사르노삼성자동차부품대리점,대전광역시 동구 계족로512번길 24 ,용전동,127.433830812472,36.3567380294239
13,107,14251,동구,(주)김설영패션,대전광역시 동구 흥룡로 60,가양동,127.450401038495,36.3500238148644
14,120,25586,동구,(주)다온프라자,대전광역시 동구 계족로 325,성남동,127.435315510689,36.3412721000773
15,143,38855,동구,(주)더큰더존푸드 대전보건대점,대전광역시 동구 충정로 21,가양동,127.455904248815,36.3505061602975
16,151,22554,동구,(주)두성프라즈마,대전광역시 동구 대전로1020번길 14 ,홍도동,127.419012490333,36.3466713647762
17,161,3994,동구,(주)디제이마루힐,대전광역시 동구 동서대로1725번길 44 ,용전동,127.439433186003,36.3524570847926
18,169,33746,동구,(주)리본라이팅 ,대전광역시 동구 대전로 944 ,삼성동,127.425274086017,36.3418608552162
19,170,21285,동구,(주)마당에모닥불하늘엔둥근달,대전광역시 동구 산내로 321-35 ,하소동,127.440844260968,36.2151049415157
20,176,33584,동구,(주)문화자동차운전전문학원,대전광역시 동구 용운로151번길 85 ,용운동,127.460175772613,36.3317397890922
21,182,37434,동구,(주)밝은노인요양원,대전광역시 동구 대전로 354-7,대성동,127.458635312741,36.2994986062346
22,184,26923,동구,(주)베니스,대전광역시 동구 대전로 696,인동,127.437698059801,36.322539848193
23,189,8428,동구,(주)본자리,대전광역시 동구 동서대로1683번길 84 ,용전동,127.435841454202,36.352817911755
24,215,28156,동구,(주)세대지업,대전광역시 동구 태전로 24 ,중동,127.430097044143,36.3326318714869
25,228,26058,동구,(주)시민엄선포크,대전광역시 동구 동구청로 14 ,대성동,127.459548755701,36.3000255332385
26,234,36228,동구,(주)씨앤비,대전광역시 동구 새울로 64 ,용운동,127.46256982679,36.3240921841174
27,247,21856,동구,(주)알에쓰씨  (R.S.C),대전광역시 동구 가양동 434번지 지하54층,가양동,127.443207250753,36.346238209684
28,259,38689,동구,(주)에스알산업,대전광역시 동구 우암로286,가양동,127.447403917814,36.3459645654336
29,266,34717,동구,(주)에이치엔(HN)하나마트,대전광역시 동구 대전로 417,가오동,127.454168263795,36.3037019987136
30,267,23212,동구,(주)에이프테크놀로지,대전광역시 동구 동서대로 1503,삼성동,127.420337981258,36.3403429868296
31,268,26469,동구,(주)에이플러스경호,대전광역시 동구 동대전로 89,대동,127.443412938116,36.3305060917571
32,280,31994,동구,(주)여이레,대전광역시 동구 중앙로 지하 218,중동,127.433005290993,36.3313335000024
33,285,32609,동구,(주)영진전자,대전광역시 동구 중앙로204번길 8 ,중동,127.431834887141,36.3304946841688
34,314,9842,동구,(주)은하스포츠,대전광역시 동구 옥천로 135,판암동,127.45533204398,36.317504705919
35,327,6715,동구,(주)인터바이오,대전광역시 동구 석천로 43-23,낭월동,127.466816701315,36.2761606810215
36,334,27420,동구,(주)전인기획,대전광역시 동구 우암로312번길 56,가양동,127.451390742792,36.3450835450797
37,339,26631,동구,(주)제이비수산,대전광역시 동구 동서대로 1585 ,홍도동,127.427565576273,36.3450713134237
38,362,7155,동구,(주)천연살균의학처,대전광역시 동구 산내로1287번길 59-17 ,낭월동,127.465825445861,36.2776902490396
39,370,8734,동구,(주)총각네휴대폰가게,대전광역시 동구 은어송로 55,가오동,127.4553612211,36.3061887708761
40,395,22375,동구,(주)코리아세븐용전점,대전광역시 동구 계족로 446 ,용전동,127.432614880347,36.3515072557053
41,410,19969,동구,(주)퍼머넌트,대전광역시 동구 충무로 207-5 ,인동,127.438749448779,36.3222824023613
42,415,31234,동구,(주)프로셀컴퍼니,대전광역시 동구 충정로 21,가양동,127.455904248815,36.3505061602975
43,416,35701,동구,(주)프로템,대전광역시 동구 물류로14번길 39,구도동,127.466814646527,36.2722448670215
44,425,14354,동구,(주)학하 삼성셀프주유소,대전광역시 동구 대전로 908 ,삼성동,127.427747396194,36.3397183165359
45,436,28658,동구,(주)해송그래픽스,대전광역시 동구 홍도로51번길 3,홍도동,127.427694580682,36.3500835409909
46,455,17791,동구,(합)금호관광,대전광역시 동구 대전로 818 ,정동,127.43232476027,36.3323777229924
47,456,23192,동구,(합)동대전위생공사,대전광역시 동구 대청호수로 25 ,비룡동,127.476359350266,36.3350508297803
48,469,25842,동구,1+한우정육식당,대전광역시 동구 대학로 59,용운동,127.456084497065,36.3351850726226
49,472,547,동구,1001 안경 콘택트,대전광역시 동구 은어송로 57 ,가오동,127.455580675257,36.306342306764
50,478,2247,동구,1004 마트,대전광역시 동구 충정로 133 ,자양동,127.449472021629,36.3429247163918
51,479,19317,동구,1004(천사)마트,대전광역시 동구 한남로7번길 96 ,홍도동,127.429278368312,36.3471359806836
52,488,24913,동구,10딸라 부대찌개떡갈비 동구본점,대전광역시 동구 용운로 117,용운동,127.455301991443,36.3281325753566
53,494,25209,동구,119포차,대전광역시 동구 태전로 132,삼성동,127.422104061295,36.3400345079786
54,499,1096,동구,1300 회전초밥,대전광역시 동구 동서대로1695번길 43,용전동,127.43672038989,36.351370393007
55,501,35111,동구,135 튀김집 한남대점,대전광역시 동구 홍도로43번길 11 ,홍도동,127.427835721254,36.349593608437
56,510,12700,동구,167-20 미장원,대전광역시 동구 계족로 461,용전동,127.432237527173,36.3529739284812
57,512,13010,동구,180도헤어,대전광역시 동구 동대전로 187-1,자양동,127.448197813486,36.3384944638063
58,516,11834,동구,1980방앗간,대전광역시 동구 계족로 273 ,소제동,127.438160648194,36.3370770978729
59,522,5665,동구,1989 역전 꼬마김밥 가오점,대전광역시 동구 은어송로52번길 13,가오동,127.456042316368,36.3055431834856
60,548,17567,동구,20세기,대전광역시 동구 중동 구지하상가가-67,중동,0,0
61,560,21364,동구,22헤어살롱(hair salon),대전광역시 동구 계족로443번길 62-2,용전동,127.428834256998,36.3516927368857
62,567,19733,동구,24시 전주명가 콩나물국밥(대전가오점),대전광역시 동구 동구청로 101,가오동,127.456169939554,36.3070582092672
63,573,24764,동구,24시셀프빨래방 세탁풍경,대전광역시 동구 우암로255번길 25,가양동,127.443671986828,36.3459019695738
64,577,22587,동구,24시전주콩나물향기국밥,대전광역시 동구 계족로 323 ,성남동,127.435429822238,36.3410164710158
65,578,15520,동구,24시종합중고매장,대전광역시 동구 동대전로 159-1 ,자양동,127.446915394775,36.3362278556212
66,588,24773,동구,25시카,대전광역시 동구 동구청로204번길 22 ,판암동,127.457628886786,36.315695833166
67,589,15030,동구,2900냥  식당,대전광역시 동구 대전로815번길 5 ,정동,127.431757660701,36.3322630706726
68,590,17640,동구,2대째 바느질,대전광역시 동구 중앙로200번길 85,원동,127.433634919595,36.3272971013934
69,607,33557,동구,365손세차전문점,대전광역시 동구 동대전로 260 ,가양동,127.446908841342,36.3445950121595
70,617,21179,동구,365할인마트,대전광역시 동구 새울로 103-1,용운동,127.461575500282,36.327576639362
71,618,19082,동구,365홈마트,대전광역시 동구 대동 64-6,대동,36.3332483,127.4481836
72,627,7178,동구,3메타,대전광역시 동구 우암로 49,삼성동,127.424210601565,36.3359186807512
73,658,8057,동구,59쌀  피자,대전광역시 동구 동서대로1668번길 28 ,성남동,127.434960358323,36.3471738303434
74,661,27112,동구,59쌀피자,대전광역시 동구 동부로 73,판암동,127.458472364496,36.3231066737681
75,668,1178,동구,5f Hair,대전광역시 동구 은어송로51번길 5,가오동,127.455023382367,36.3059724224437
76,675,40070,동구,60계치킨 (대전대동점),대전광역시 동구 용운로 3,대동,127.443796948287,36.329286637171
77,677,32910,동구,60계치킨 대전산내대성점,대전광역시 동구 산내로 1339,낭월동,127.46651643783,36.2828223130425
78,686,12673,동구,66-31번지 헤어살롱,대전광역시 동구 계족로 194-31 ,대동,127.44337603168,36.331068832703
79,687,2251,동구,666버거 가양점,대전광역시 동구 동대전로248번길 5,가양동,127.447574119995,36.3437628118158
80,699,727,동구,7번가 피자 가오점,대전광역시 동구 은어송로 73,가오동,127.456859475073,36.3072486087388
81,712,8906,동구,888중화요리,대전광역시 동구 우암로 139-4,삼성동,127.433463230654,36.3397297135337
82,715,34787,동구,88유통,대전광역시 동구 물류로14번길 45 ,구도동,127.465929236442,36.2724746069387
83,751,10205,동구,B2헤어샵,대전광역시 동구 계족로464번길 19 ,용전동,127.433823203254,36.3531582394751
84,762,8380,동구,bhc대전문창점,대전광역시 동구 대전로 627,효동,127.439665443709,36.3166372142388
85,771,13886,동구,BODA MOTORS,대전광역시 동구 산내로 1283 ,낭월동,127.468919167184,36.2782353596398
86,778,7235,동구,BYC가오점,대전광역시 동구 은어송로 75,가오동,127.457071442246,36.3073964930283
87,780,17870,동구,BYC왕자상회,대전광역시 동구 중앙로200번길 42-1,원동,127.432268764848,36.3289552583619
88,785,1527,동구,C.M.G,대전광역시 동구 대전로797번길 14 ,중동,127.43206673261,36.3305282712115
89,800,8251,동구,CN바이크,대전광역시 동구 대전로 437 ,가오동,127.452688388908,36.3052069935391
90,821,19887,동구,CU(씨유)가양중앙점,대전광역시 동구 흥룡로 43 ,가양동,127.448393164321,36.3495077846436
91,822,10270,동구,CU(씨유)가양평화점,대전광역시 동구 비래서로62번길 1 ,가양동,127.451340980783,36.3540639185181
92,823,9120,동구,CU(씨유)가양플라워점,대전광역시 동구 우암로 244,가양동,127.44355998626,36.3441849286584
93,824,17588,동구,CU(씨유)가오패션아일랜드점,대전광역시 동구 은어송로 72,가오동,127.457985837078,36.3069678174478
94,844,17922,동구,CU(씨유)대전가오점,대전광역시 동구 신기로 99 ,가오동,127.456865562853,36.3106397203464
95,845,22930,동구,CU(씨유)대전가오중앙점,대전광역시 동구 은어송로 56,가오동,127.455701281783,36.3058872924106
96,846,18102,동구,CU(씨유)대전가오현대점,대전광역시 동구 은어송로 117,가오동,127.461544099826,36.310710875626
97,866,16269,동구,CU(씨유)대전금나와라뚝딱점,대전광역시 동구 대전로340번길 15 1층 101호 ,대성동,127.459965738258,36.2987060443411
98,867,19834,동구,CU(씨유)대전낭월빌리지점,대전광역시 동구 산내로1257번길 35 ,낭월동,127.468021893555,36.2761710203272
99,868,19353,동구,CU(씨유)대전낭월스타점,대전광역시 동구 산내로 1354,낭월동,127.466244996513,36.2841009774194
100,874,7709,동구,CU(씨유)대전대서문점,대전광역시 동구 대학로50번길 6-4,용운동,127.456086701126,36.3340346245607
101,876,38551,동구,CU(씨유)대전대학생회관점,대전광역시 동구 대학로62,용운동,127.459001869396,36.336696167799
102,877,19218,동구,CU(씨유)대전대행복점,대전광역시 동구 새울로109번길 26-1 ,용운동,127.460397340278,36.3284716348697
103,897,17144,동구,CU(씨유)대전보건대학정문점,대전광역시 동구 충정로18번길 3 ,가양동,127.453349516287,36.3484257903063
104,906,17141,동구,CU(씨유)대전삼성사랑점,대전광역시 동구 태전로126번길 1,삼성동,127.422482913984,36.3397288424329
105,908,18580,동구,CU(씨유)대전삼성타운점,대전광역시 동구 우암로 125-15,삼성동,127.432422846874,36.3393838266497
106,923,23567,동구,CU(씨유)대전알콩달콩점,대전광역시 동구 계족로483번길 20-11,용전동,127.431404650064,36.3554576864752
107,931,10608,동구,CU(씨유)대전용운점,대전광역시 동구 백룡로 133,용운동,127.454371074518,36.3289063527267
108,932,38591,동구,CU(씨유)대전용전가현점,대전광역시 동구 동서대로1653번길 126,용전동,127.433879438352,36.3536956749368
109,934,17094,동구,CU(씨유)대전우송타운점,대전광역시 동구 동대전로183번길 51,자양동,127.448220609288,36.3400429562594
110,946,19785,동구,CU(씨유)대전은어송마을점,대전광역시 동구 대전로448번길 34,가오동,127.453813475527,36.3067261714176
111,947,16328,동구,CU(씨유)대전이스트시티2차점,대전광역시 동구 동대전로46번길 120,신흥동,127.440485148214,36.324141004605
112,948,17143,동구,CU(씨유)대전이스트시티점,대전광역시 동구 동대전로46번길 30,신흥동,127.437849845079,36.3271378175931
113,949,14993,동구,CU(씨유)대전인동현대점,대전광역시 동구 대전로 664,인동,127.43953046689,36.32024449437
114,950,19828,동구,CU(씨유)대전자양점,대전광역시 동구 백룡로22번길 38,자양동,127.44806591187,36.3341929303222
115,962,17126,동구,CU(씨유)대전터미널점,대전광역시 동구 동서대로1695번길 18,용전동,127.437698678825,36.3505225046906
116,965,16363,동구,CU(씨유)대전하늘채점,대전광역시 동구 동구청로 35,대성동,127.458270508282,36.3037469941274
117,966,17692,동구,CU(씨유)대전현암점,대전광역시 동구 현암로 35,삼성동,127.418830927445,36.3422436293383
118,967,17512,동구,CU(씨유)대전홍도타운점,대전광역시 동구 동산초교로23번길 15,홍도동,127.425752652845,36.3463479009306
119,1001,18160,동구,CU(씨유)우송대서문점,대전광역시 동구 동중앙로 75 ,가양동,127.444850291713,36.3388812287798
120,1002,20243,동구,CU(씨유)우송센터점,대전광역시 동구 백룡로11번길 60-4 ,자양동,127.449986497152,36.3383275135876
121,1029,17616,동구,CU(씨유)한남대빌리지점,대전광역시 동구 홍도로33번길 45,홍도동,127.427114962317,36.3490453895139
122,1059,2294,동구,e-box,대전광역시 동구 동서대로 1689,용전동,127.436693888994,36.350315576746
123,1085,35759,동구,GO FOOD,대전광역시 동구 옻밭2길 68,판암동,127.448428219159,36.3210517937381
124,1100,16585,동구,GS25  대전자양로점,대전광역시 동구 한밭대로 1290 ,용전동,127.438647802558,36.3534951474108
125,1105,16455,동구,GS25  용전파크점,대전광역시 동구 한밭대로 1316-15 ,용전동,127.440006387845,36.3519255365368
126,1111,32148,동구,GS25 가오은어송점,대전광역시 동구 은어송로 116,가오동,127.462046839208,36.3102783506981
127,1125,33496,동구,GS25 자양친절점,대전광역시 동구 백룡로57번길 145,자양동,127.450022647633,36.3394031092419
128,1134,21267,동구,GS25가양중앙점,대전광역시 동구 흥룡로 42 ,가양동,127.448473008001,36.3491720685023
129,1135,20199,동구,GS25가양큰별점,대전광역시 동구 가양로 134,가양동,127.441379513363,36.3480271349227
130,1136,12864,동구,GS25가양큰솔점,대전광역시 동구 우암로312번길 16,가양동,127.450279115811,36.3466491115683
131,1137,23562,동구,GS25가오중앙점,대전광역시 동구 은어송로52번길 5-4,가오동,127.455904596905,36.3056783448982
132,1164,22212,동구,GS25남대전IC점,대전광역시 동구 물류로13번길 74 ,구도동,127.469555286833,36.2728333351602
133,1165,17997,동구,GS25낭월제일점,대전광역시 동구 산내로 1375,낭월동,127.464159563121,36.2875867506146
134,1173,12393,동구,GS25뉴대전대정문점,대전광역시 동구 용운로147번길 93,용운동,127.461464165273,36.330944491084
135,1174,23381,동구,GS25뉴대전홍도점,대전광역시 동구 한남로7번길 29,홍도동,127.427940450038,36.3499212605745
136,1175,21457,동구,GS25뉴우송대서문점,대전광역시 동구 가양남로 32 ,가양동,127.444556218608,36.3387223645581
137,1183,19180,동구,GS25대전가오점,대전광역시 동구 은어송로51번길 5 ,가오동,127.455023382367,36.3059724224437
138,1188,22215,동구,GS25대전낭월점,대전광역시 동구 산내로1305번길 1 ,낭월동,127.468065662276,36.279867140232
139,1191,22235,동구,GS25대전대학사점,대전광역시 동구 대학로 62-60 ,용운동,127.457877830011,36.3375983194177
140,1201,16518,동구,GS25대전빅플러스점,대전광역시 동구 동서대로 1688,성남동,127.437440129328,36.3488529467883
141,1215,38400,동구,GS25대전인동점,대전광역시 동구 인동 72-11,인동,127.435848030171,36.3240296755257
142,1221,16533,동구,GS25대전터미널점,대전광역시 동구 동서대로1683번길 56-21 ,용전동,127.436420771111,36.351999875506
143,1223,22187,동구,GS25대전판암점,대전광역시 동구 동부로73번길 25 ,용운동,127.460273457102,36.3232954874185
144,1224,16489,동구,GS25대전포레스트점,대전광역시 동구 판암동 834 그린코아포레스트2단지아파트상가 401동 101호,판암동,127.461636844211,36.3207000684555
145,1225,23525,동구,GS25대전폴리텍점,대전광역시 동구 흥룡로 75 ,가양동,127.451525663653,36.3509523743399
146,1265,25,동구,GS25복합터미널1호점,대전광역시 동구 동서대로 1689,용전동,127.436693888994,36.350315576746
147,1266,22885,동구,GS25복합터미널2호점,대전광역시 동구 동서대로 1689,용전동,127.436693888994,36.350315576746
148,1275,15931,동구,GS25성남스마트점,대전광역시 동구 성남로 15,성남동,127.433915250632,36.3430441250739
149,1290,22983,동구,GS25용운샛별점,대전광역시 동구 대학로50번길 24,용운동,127.457103155921,36.3336917193981
150,1291,16512,동구,GS25용전대로점,대전광역시 동구 계족로463번길 2,용전동,127.432257788925,36.3532333028412
151,1292,16301,동구,GS25용전로망스점,대전광역시 동구 한밭대로1316번길 19,용전동,127.440162602975,36.3510789402118
152,1293,16113,동구,GS25용전민트점,대전광역시 동구 계족로438번길 41,용전동,127.434786141996,36.3507623057861
153,1294,16562,동구,GS25용전중앙점,대전광역시 동구 한밭대로1283번길 11,용전동,127.438935787232,36.3546453376715
154,1295,23140,동구,GS25용전타운점,대전광역시 동구 계족로475번길 38-3,용전동,127.430302861476,36.3545580535245
155,1296,22203,동구,GS25우송대스타점,대전광역시 동구 백룡로6번길 55,자양동,127.446605276028,36.3338814539899
156,1297,22205,동구,GS25우송사랑점,대전광역시 동구 동대전로131번길 8-3 ,자양동,127.445232110273,36.3342791291951
157,1298,22192,동구,GS25우송아트점,대전광역시 동구 동대전로 171-29 ,자양동,127.446721332356,36.3363195998049
158,1299,19186,동구,GS25우송자양점,대전광역시 동구 백룡로 27-1 ,자양동,127.450114449229,36.335321524298
159,1319,22218,동구,GS25자양동아점,대전광역시 동구 성동로 67-4 ,자양동,127.450895599886,36.3415493893225
160,1320,22242,동구,GS25자양사랑점,대전광역시 동구 백룡로5번길 38,자양동,127.448905051023,36.3376677754541
161,1336,18075,동구,GS25판암IC점,대전광역시 동구 옥천로 188,판암동,127.461141063425,36.3175427264133
162,1338,16317,동구,GS25한남대센트럴점,대전광역시 동구 홍도로33번길 74-11,홍도동,127.426113042324,36.3506444941501
163,1340,40079,동구,GS25한남대한숲,대전광역시 동구 홍도로46번길 63,용전동,127.429062386889,36.3526621208959
164,1348,22211,동구,GS25효동스타점,대전광역시 동구 계족로 33,효동,127.441916976402,36.3180451128872
165,1353,7426,동구,Gyuul Nim(귤님),대전광역시 동구 대전로470번길 78,가오동,127.453670684673,36.3096195873704
166,1358,5920,동구,H STYLE 헤어살롱 가오점,대전광역시 동구 은어송로 72,가오동,127.457985837078,36.3069678174478
167,1361,12619,동구,HairSY,대전광역시 동구 계족로 184-10,대동,127.442892476846,36.3304066392023
168,1371,27159,동구,ILU언어심리발달센터,대전광역시 동구 동서대로1572번길 157,성남동,127.433588145699,36.3417279756105
169,1380,14210,동구,JK스포츠,대전광역시 동구 대전로 866 ,삼성동,127.430583734087,36.3365927687018
170,1392,13778,동구,K2 DVD 영화관,대전광역시 동구 동대전로 126-2,대동,127.445667519189,36.3334228318014
171,1395,14505,동구,K2NET  대전홍도지사,대전광역시 동구 홍도동 848-11,홍도동,127.419418703575,36.3457470471537
172,1396,17583,동구,K2노래연습장,대전광역시 동구 새울로109번길 27 ,용운동,127.460344397848,36.3282753825297
173,1404,27681,동구,KS특수방수,대전광역시 동구 동서대로 1616 ,성남동,127.430565097469,36.3458949409167
174,1409,17968,동구,K팝코인노래연습장,대전광역시 동구 동대전로 164,자양동,127.447573849457,36.3364541097165
175,1413,4645,동구,LA헤어샵,대전광역시 동구 계족로382번길 27,성남동,127.434481242991,36.3464940156282
176,1427,30963,동구,LJ헤어,대전광역시 동구 용운로 149,용운동,127.459014059008,36.3282367918781
177,1451,26004,동구,M스크린골프,대전광역시 동구 동구청로 101,가오동,127.456169939554,36.3070582092672
178,1453,33313,동구,nail.쓰담,대전광역시 동구 은어송로77번길 45 ,가오동,127.455877433475,36.3091793479277
179,1454,15882,동구,NEW  우주상사,대전광역시 동구 중동 317 역전지하상가 나열 70호,중동,127.430517139303,36.3304212158619
180,1457,34123,동구,NKsys,대전광역시 동구 대전천동로 638-1 ,삼성동,127.423760047141,36.3359783148337
181,1475,1536,동구,PAT 대전점,대전광역시 동구 중앙로 194-1 ,중동,127.430796127897,36.3303392849894
182,1484,29188,동구,PC전화방,대전광역시 동구 동서대로1695번길 76 ,용전동,127.436960919947,36.3525877191086
183,1509,38834,동구,SHB뷰티앤헬스,대전광역시 동구 대전로815번길131,삼성동,127.427960764927,36.3368992173608
184,1524,9771,동구,sol,대전광역시 동구 우암로 128,삼성동,127.43234827127,36.3384262376109
185,1528,26055,동구,SS디자인,대전광역시 동구 선화로 211,삼성동,127.428703958024,36.3346905661637
186,1531,32138,동구,STCO 동대전상설점 ,대전광역시 동구 한밭대로 1268,용전동,127.437052783995,36.3547916512214
187,1540,37201,동구,S라인코디,대전광역시 동구 계족로489번길 22-2 ,용전동,127.431657282797,36.3556308806249
188,1544,38047,동구,t world 트롤대리점우송대점,대전광역시 동구 동대전로 134 ,자양동,127.445978312141,36.333997433344
189,1546,6373,동구,TGIF 롯데 대전점,대전광역시 동구 동서대로 1669,용전동,127.435076192131,36.3489721509227
190,1551,19683,동구,The 샵 정성스토리,대전광역시 동구 새울로86번길 2,용운동,127.461820680372,36.3258870692824
191,1560,33839,동구,TOP태권도유소년스포츠클럽,대전광역시 동구 대전로 643-1,효동,127.439151862059,36.3178858817864
192,1599,34201,동구,가구톡세상 대전점,대전광역시 동구 물류로 4,구도동,127.468825691439,36.2727470704111
193,1600,17274,동구,가까운 에너지,대전광역시 동구 대동천우안5길 180 ,성남동,127.435964868578,36.3391250274921
194,1617,3175,동구,가나전기조명,대전광역시 동구 대전로 701-2 ,인동,127.436972912454,36.3229083792646
195,1618,9761,동구,가나카센타,대전광역시 동구 대동 400-9,대동,36.3293449,127.4465662
196,1624,10399,동구,가드 원,대전광역시 동구 동산초교로22번길 17,홍도동,127.427852033982,36.3469147210844
197,1638,13808,동구,가람네일,대전광역시 동구 계족로489번길 3 ,용전동,127.432454182118,36.3554053194418
198,1639,15365,동구,가람노래연습실,대전광역시 동구 대전로813번길 4 ,정동,127.431740572996,36.3320728941502
199,1646,27805,동구,가람열쇠,대전광역시 동구 태전로 197 ,삼성동,127.416870267739,36.3441147451195
200,1650,27369,동구,가래울가든,대전광역시 동구 대청호수로585번길 14,추동,127.474451092788,36.3758669527407
201,1664,13915,동구,가마니상회,대전광역시 동구 충무로 185,인동,127.436652059271,36.3217881267744
202,1680,7259,동구,가마치가오점,대전광역시 동구 은어송로 57,가오동,127.455580675257,36.306342306764
203,1692,24899,동구,가마치통닭 용운점,대전광역시 동구 용운로 62,용운동,127.44948572384,36.3266007818761
204,1693,9368,동구,가마치통닭낭월점,대전광역시 동구 산내로1305번길 6,낭월동,127.467901400886,36.2801877929355
205,1698,21745,동구,가마치통닭성남점,대전광역시 동구 동서대로1668번길 33,성남동,127.4352341295,36.3469051849829
206,1703,11781,동구,가미,대전광역시 동구 옥천로176번길 28 ,판암동,127.459405223128,36.3158131118671
207,1705,4328,동구,가방 공판장,대전광역시 동구 중앙로204번길 14 ,중동,127.432008479168,36.3302450618542
208,1738,12702,동구,가야숯불치킨,대전광역시 동구 판암로 19 ,판암동,127.462345939268,36.3178631268515
209,1742,12574,동구,가야숯불치킨 (가양점),대전광역시 동구 우암로 248 ,가양동,127.443735864491,36.3442807013152
210,1745,15985,동구,가야숯불치킨(가오점),대전광역시 동구 대전로 515,천동,127.44809290018,36.3107966562414
211,1746,634,동구,가양 숯불구이,대전광역시 동구 용운로 1 ,대동,127.443661959614,36.3292858766702
212,1747,36830,동구,가양간호학원,대전광역시 동구 충정로 6,가양동,127.451780388023,36.3486672994888
213,1748,30806,동구,가양골순대국,대전광역시 동구 가양로 133,가양동,127.440900749522,36.3481515519992
214,1749,18262,동구,가양김밥,대전광역시 동구 동서대로1748번길 124 ,가양동,127.448840658587,36.3493511930566
215,1750,19390,동구,가양도매마트,대전광역시 동구 가양로 124 ,가양동,127.441354905781,36.3472396904533
216,1751,13119,동구,가양동물병원,대전광역시 동구 흥룡로 4 ,가양동,127.445156192001,36.3472440645722
217,1752,33573,동구,가양돼지,대전광역시 동구 동대전로284번길 117,가양동,127.450326640584,36.349562875093
218,1753,18566,동구,가양산부인과의원,대전광역시 동구 우암로 273 ,가양동,127.445989387547,36.3457867345105
219,1754,8118,동구,가양생필품,대전광역시 동구 가양로 104,가양동,127.442305448416,36.3456992246655
220,1755,15349,동구,가양신발,대전광역시 동구 흥룡로 4,가양동,127.445156192001,36.3472440645722
221,1757,23490,동구,가양임광하이츠교실,대전광역시 동구 동서대로1778번길 78,가양동,127.448655655898,36.3525027474986
222,1758,6600,동구,가양자동차관리 배터리 샵,대전광역시 동구 대성길 62,가양동,127.440621173853,36.3388649942602
223,1759,33880,동구,가양자전거,대전광역시 동구 우암로291번길 2,가양동,127.447871107156,36.3466048112435
224,1760,13576,동구,가양점카맨샵,대전광역시 동구 우암로 316 ,가양동,127.450430026927,36.347436348334
225,1761,22265,동구,가양주유소,대전광역시 동구 우암로 365 ,가양동,127.452462907589,36.3514532153556
226,1762,33345,동구,가양직매장,대전광역시 동구 가양로 133-14 ,가양동,127.440434328431,36.348074419327
227,1763,2451,동구,가양축산,대전광역시 동구 동대전로284번길 37,가양동,127.447156900062,36.3471246691603
228,1764,8047,동구,가양탑치과의원,대전광역시 동구 동대전로 272,가양동,127.446253754841,36.3454393365111
229,1765,12906,동구,가양탑학원,대전광역시 동구 비래서로42번길 13,가양동,127.448893450103,36.3534240239739
230,1766,31399,동구,가양특수렉카,대전광역시 동구 동대전로248번길 79,가양동,127.451054093982,36.3453906744337
231,1767,11793,동구,가양할인마트,대전광역시 동구 가양로80번길 23,가양동,127.443088510626,36.342543296989
232,1772,1944,동구,가오 독서실,대전광역시 동구 은어송로52번길 5-4,가오동,127.455904596905,36.3056783448982
233,1773,5918,동구,가오 종로상회,대전광역시 동구 대전로 446,가오동,127.45263976764,36.3058293517662
234,1774,30089,동구,가오검도관,대전광역시 동구 대전로 674-2,인동,127.438673526332,36.3205982003231
235,1775,31424,동구,가오당구클럽 ,대전광역시 동구 은어송로51번길 7,가오동,127.454860933214,36.3061442646415
236,1776,18608,동구,가오문구,대전광역시 동구 신기로 123-27,가오동,127.457867613182,36.3113133924448
237,1777,30360,동구,가오복싱클럽,대전광역시 동구 은어송로 48,가오동,127.455135623721,36.3055335715683
238,1778,35616,동구,가오부동산경매학원,대전광역시 동구 은어송로51번길 7,가오동,127.454860933214,36.3061442646415
239,1779,17078,동구,가오분식,대전광역시 동구 신기로 123-39,가오동,127.457481338503,36.3110448782871
240,1780,29428,동구,가오불고기,대전광역시 동구 은어송로51번길 38-4 ,가오동,127.454115537662,36.3072627578993
241,1781,27716,동구,가오불닭발,대전광역시 동구 대전로 436-31 ,가오동,127.454305948166,36.3057491351528
242,1782,7295,동구,가오비타민,대전광역시 동구 은어송로 63,가오동,127.456024158274,36.3066697265049
243,1783,14283,동구,가오서점,대전광역시 동구 대전로448번길 59 ,가오동,127.454697222243,36.3076522894042
244,1784,1293,동구,가오수산,대전광역시 동구 은어송로 37,가오동,127.4539592773,36.3051799154709
245,1786,36422,동구,가오스마트해법영어교습소,대전광역시 동구 은어송로 117,가오동,127.461544099826,36.310710875626
246,1787,726,동구,가오스터디카페,대전광역시 동구 신기로 84 ,가오동,127.455616866036,36.3095584757804
247,1788,20022,동구,가오심쿵떡볶이,대전광역시 동구 신기로 123-35,가오동,127.457603430917,36.311130653754
248,1789,24262,동구,가오아이소아과,대전광역시 동구 은어송로 60,가오동,127.456126586887,36.3061908998477
249,1790,1600,동구,가오약국,대전광역시 동구 대전로 463,가오동,127.450994803367,36.3068296591683
250,1791,33588,동구,가오엑티브태권도,대전광역시 동구 가오동 652번지 701호,가오동,127.456246580402,36.3056885753822
251,1792,32097,동구,가오영재독서실,대전광역시 동구 은어송로 60,가오동,127.456126586887,36.3061908998477
252,1793,32413,동구,가오예시티약국,대전광역시 동구 동구청로 95,가오동,127.456739020314,36.3065069481971
253,1794,17884,동구,가오온누리약국,대전광역시 동구 은어송로 60,가오동,127.456126586887,36.3061908998477
254,1795,37152,동구,가오점핑,대전광역시 동구 은어송로 42-25,가오동,127.455597923255,36.3054601669799
255,1796,33556,동구,가오정형외과의원,대전광역시 동구 동구청로 95,가오동,127.456739020314,36.3065069481971
256,1797,29289,동구,가오주먹구이&막창,대전광역시 동구 은어송로51번길 20,가오동,127.454735792252,36.3067205039639
257,1798,7341,동구,가오짐피티샵,대전광역시 동구 은어송로51번길 12 ,가오동,127.455076241266,36.3064658871182
258,1799,1595,동구,가오카,대전광역시 동구 은어송로 38 ,가오동,127.45458385923,36.3050789532316
259,1800,23073,동구,가오클라쓰,대전광역시 동구 은어송로52번길 13,가오동,127.456042316368,36.3055431834856
260,1801,33645,동구,가오푸른정신건강의학 ,대전광역시 동구 동구청로 95,가오동,127.456739020314,36.3065069481971
261,1802,7424,동구,가오플러스  산후조리원,대전광역시 동구 은어송로 63,가오동,127.456024158274,36.3066697265049
262,1803,7350,동구,가오플러스산부인과,대전광역시 동구 은어송로 63,가오동,127.456024158274,36.3066697265049
263,1804,22726,동구,가오하이탑학원,대전광역시 동구 은어송로52번길 5-4,가오동,127.455904596905,36.3056783448982
264,1805,31428,동구,가오한의원 ,대전광역시 동구 은어송로 75,가오동,127.457071442246,36.3073964930283
265,1806,36671,동구,가오합기도,대전광역시 동구 은어송로 73,가오동,127.456859475073,36.3072486087388
266,1807,1291,동구,가오활어회센터,대전광역시 동구 은어송로 37,가오동,127.4539592773,36.3051799154709
267,1817,15583,동구,가온영수전문학원,대전광역시 동구 대전로542번길 80-47,천동,127.446636999963,36.3160213684718
268,1825,8712,동구,가우스수학전문학원,대전광역시 동구 동구청로 89-2,가오동,127.456979499438,36.3062750570675
269,1830,36450,동구,가원기획,대전광역시 동구 중동 1-66 의지빌딩2층 201,중동,127.42849495046,36.3340904116909
270,1831,17823,동구,가위느낌,대전광역시 동구 동서대로1520번길 35,삼성동,127.423468430734,36.3399466830482
271,1833,27973,동구,가위소리,대전광역시 동구 옥천로 152-6,판암동,127.457120597795,36.3165802109009
272,1835,9700,동구,가위소리미용실,대전광역시 동구 우암로 383,가양동,127.453428997793,36.3530072294783
273,1840,26682,동구,가인샵,대전광역시 동구 중앙로200번길 70,원동,127.432746795187,36.3274480230318
274,1841,26684,동구,가인수선,대전광역시 동구 중앙로200번길 70,원동,127.432746795187,36.3274480230318
275,1842,9361,동구,가인주단,대전광역시 동구 중앙로194번길 28 ,중동,127.43130522121,36.3293085759266
276,1844,20111,동구,가자노래연습장,대전광역시 동구 우암로 321,가양동,127.45050294247,36.3479883122632
277,1852,26583,동구,가자청담으로,대전광역시 동구 백룡로 12,자양동,127.448240610407,36.335757706277
278,1882,27533,동구,가톨릭요양보호사교육원,대전광역시 동구 동서대로 1647,용전동,127.432954304309,36.3481423069777
279,1885,4011,동구,가피식당,대전광역시 동구 역전시장길 57 ,정동,127.434691103516,36.3291321155187
280,1891,2701,동구,각국옷나라,대전광역시 동구 중앙로194번길 17-1 ,중동,127.431319154845,36.3297957016019
281,1892,38136,동구,각설탕 카페,대전광역시 동구 합내로 41,가양동,127.440245362082,36.3468022983627
282,1899,37928,동구,간판집,대전광역시 동구 우암로 357 ,가양동,127.452277311721,36.3509532265954
283,1902,1222,동구,갈리연 동태집,대전광역시 동구 동대전로284번길 15,가양동,127.446101019176,36.3466676653766
284,1903,39877,동구,갈릴리,대전광역시 동구 대전로 755-4,원동,127.434491132044,36.327316521435
285,1928,22186,동구,갈비김치찌개전문점,대전광역시 동구 산내로 1335 ,낭월동,127.466656263965,36.282564660215
286,1930,22059,동구,갈비배달도시락 스트릿테이블 자양동점,대전광역시 동구 동대전로 223-1,자양동,127.448411198602,36.3415591876275
287,1931,22202,동구,갈비배달도시락스트릿테이블 가오동점,대전광역시 동구 대전로 452,가오동,127.452062388921,36.3062974460073
288,1948,29670,동구,감골오리,대전광역시 동구 대전로 896 ,삼성동,127.42891418479,36.3389256065587
289,1956,28378,동구,감사할인매장,대전광역시 동구 대전로 774-1,원동,127.434281943443,36.328975987136
290,1958,38748,동구,감성낙곱새(대전동구점),대전광역시 동구 한밭대로1254번길31,용전동,127.435209614924,36.3548100939007
291,1959,26200,동구,감성도야지,대전광역시 동구 계족로 142,대동,127.444754324216,36.326878290048
292,1965,35608,동구,감성이 자라는 음악학원,대전광역시 동구 동대전로248번길 13,가양동,127.447951420648,36.3439395601619
293,1972,641,동구,감성키친,대전광역시 동구 홍도로9번길 12,홍도동,127.429413111027,36.3469849104275
294,1973,26970,동구,감성타일,대전광역시 동구 대전로 573,천동,127.441999832349,36.3120695446146
295,1981,26782,동구,갑띠방,대전광역시 동구 동서대로 1719 ,용전동,127.44035289717,36.3507849974612
296,1984,39769,동구,갑오명가,대전광역시 동구 대전로459-3,가오동,127.451352841513,36.306475766715
297,1985,4769,동구,갑진사,대전광역시 동구 원동 60-2 국제시장,원동,127.432479730591,36.3280933309314
298,2004,7842,동구,강경상회,대전광역시 동구 충무로 185 ,인동,127.436652059271,36.3217881267744
299,2012,13738,동구,강경할매젓갈백화점,대전광역시 동구 비래서로42번길 26-1 ,가양동,127.44838028315,36.3530119521626
300,2015,360,동구,강나루 식당,대전광역시 동구 신기로101번길 30-17,가오동,127.456838826818,36.3111337583212
301,2017,28038,동구,강남가브리와뽈살(대동점),대전광역시 동구 계족로 140,대동,127.444802851268,36.32673581373
302,2038,5365,동구,강대포 식당,대전광역시 동구 계족로 435,용전동,127.431984430179,36.3506787449992
303,2048,24870,동구,강문인쇄사,대전광역시 동구 태전로114번길 32 ,삼성동,127.425130158479,36.3392356138361
304,2057,24008,동구,강병진,대전광역시 동구 용운로 170,용운동,127.460965313411,36.3276734373929
305,2064,22446,동구,강석만치과의원,대전광역시 동구 계족로 255 ,소제동,127.438898017266,36.3355491533845
306,2067,5528,동구,강수진 패션,대전광역시 동구 중앙로200번길 85,원동,127.433634919595,36.3272971013934
307,2068,4601,동구,강쌤 사랑나무 영어교습소,대전광역시 동구 대전로542번길 78,천동,127.446044443222,36.3154865690411
308,2082,10160,동구,강원상회,대전광역시 동구 원동 65,원동,0,0
309,2088,8082,동구,강인유통(동원샘물),대전광역시 동구 삼성동 302-127 물류창고A-2동,삼성동,127.426660905591,36.341636025444
310,2101,38636,동구,강청골순대국밥,대전광역시 동구 동대전로229 ,가양동,127.447983980001,36.3419614517988
311,2102,34092,동구,강청골순대국밥,대전광역시 동구 옥천로 187,판암동,127.460803903276,36.3180581481156
312,2105,33399,동구,강치과의원,대전광역시 동구 대전로 834,정동,127.431770444265,36.333933804501
313,2115,26468,동구,개나리미용실,대전광역시 동구 우암로291번길 60 ,가양동,127.44626545734,36.348798055479
314,2124,17695,동구,개똥이네 닭집,대전광역시 동구 중앙로200번길 34 ,원동,127.432089755883,36.3292720383223
315,2127,27758,동구,개미수산,대전광역시 동구 역전시장길 8 ,정동,127.433731277703,36.3304560058946
316,2128,5429,동구,개미주단,대전광역시 동구 원동 40-1 195,원동,0,0
317,2133,13240,동구,개벽,대전광역시 동구 중앙로 200,중동,127.431162001818,36.330664101385
318,2137,5532,동구,개성시대,대전광역시 동구 대전로791번길 38 ,중동,127.431126374177,36.3296151705624
319,2139,21487,동구,개성시대미용실,대전광역시 동구 우암로 186,성남동,127.437946044522,36.3415398706865
320,2144,8048,동구,개인과외,대전광역시 동구 동서대로1770번길 85,가양동,127.448170889818,36.3521658159572
321,2145,10014,동구,개인과외,대전광역시 동구 옥천로180번길 47-2,판암동,127.462764378165,36.3158216932373
322,2146,23648,동구,개인과외,대전광역시 동구 용운로 170,용운동,127.460965313411,36.3276734373929
323,2166,35843,동구,개인과외,대전광역시 동구 용운로 203,용운동,127.464787200907,36.3273127654815
324,2173,40186,동구,개인과외(토론하는 아이들),대전광역시 동구 신기로 115,가오동,127.458213867462,36.3115544826868
325,2179,17431,동구,개인택시,대전광역시 동구 태전로114번길 8,삼성동,127.423947568309,36.338826535812
326,2190,17277,동구,개인택시,대전광역시 동구 대전로 529,천동,127.447366644677,36.3110800933652
327,2191,16336,동구,개인택시,대전광역시 동구 대전로340번길 20,대성동,127.461284171778,36.2986986218884
328,2192,17069,동구,개인택시,대전광역시 동구 동서대로 1579,홍도동,127.427278470337,36.3447991042821
329,2193,36168,동구,개인택시,대전광역시 동구 백룡로 138,용운동,127.454698926005,36.3306646511047
330,2194,17260,동구,개인택시,대전광역시 동구 비래서로62번길 5,가양동,127.451796721737,36.3541356417415
331,2195,16991,동구,개인택시,대전광역시 동구 산서로1660번길 42 ,대별동,127.462304308987,36.2879476514842
332,2196,17129,동구,개인택시,대전광역시 동구 옥천로180번길 23,판암동,127.462468484223,36.3171745140182
333,2210,9583,동구,개천만두,대전광역시 동구 대전천동로 534,원동,127.431186248337,36.3287176531836
334,2211,18706,동구,개천식당,대전광역시 동구 원동 62-1,원동,127.431728867163,36.3286189080807
335,2218,5932,동구,갤러리 홍연,대전광역시 동구 중앙로200번길 85,원동,127.433634919595,36.3272971013934
336,2240,17253,동구,갱스헤어뉴스,대전광역시 동구 성동로 1 ,자양동,127.45185341688,36.3369930397156
337,2243,39759,동구,거도산업,대전광역시 동구 대전로906번길47-5,삼성동,127.429026499497,36.3404554885966
338,2245,2431,동구,거래처,대전광역시 동구 산내로 1303,낭월동,127.46817026789,36.2797707548225
339,2247,21826,동구,거목슈퍼,대전광역시 동구 계족로392번길 143 ,가양동,127.439876851684,36.3493759644619
340,2253,36009,동구,거북이보호작업장,대전광역시 동구 보문로 4,효동,127.44008928181,36.3153729238461
341,2261,17038,동구,거상 당구장,대전광역시 동구 합내로 3-1 ,가양동,127.440656954568,36.3434567960303
342,2263,39358,동구,거성전자,대전광역시 동구 흥룡로71번길 24-1,가양동,127.452032154711,36.351770075693
343,2274,27748,동구,건강마을,대전광역시 동구 중교로 130-4 ,원동,127.433461504321,36.3286020032385
344,2279,7802,동구,건강백세안마원,대전광역시 동구 동대전로 108,대동,127.444670026611,36.3318778771761
345,2284,39016,동구,건강식품백화점,대전광역시 동구 중앙로200번길40,원동,127.432006142463,36.3292367440967
346,2287,19397,동구,건강약국,대전광역시 동구 동대전로 272,가양동,127.446253754841,36.3454393365111
347,2291,16209,동구,건강제일약국,대전광역시 동구 동대전로 90 ,대동,127.443836381686,36.3304071930865
348,2300,20155,동구,건강한삶,대전광역시 동구 계족로 137,대동,127.443124606043,36.3272442729139
349,2310,26771,동구,건빵빈티지,대전광역시 동구 중앙로 205-2,중동,127.431787969317,36.3311555059338
350,2330,27379,동구,건우피아노학원,대전광역시 동구 대전로867번길 28 ,삼성동,127.428832895222,36.3361256763252
351,2335,5929,동구,걸작 떡볶이,대전광역시 동구 동서대로1695번길 30,용전동,127.437518299333,36.3512760051536
352,2339,12775,동구,검은커피로스터스,대전광역시 동구 한밭대로 1230-7,용전동,127.433871609378,36.3571230422851
353,2343,12922,동구,게다,대전광역시 동구 은어송로51번길 11,가오동,127.454697464467,36.3062940316078
354,2345,6170,동구,게랑 나랑,대전광역시 동구 동서대로 1503 ,삼성동,127.420337981258,36.3403429868296
355,2348,22058,동구,게랑나랑 자양점,대전광역시 동구 동대전로 223-1,자양동,127.448411198602,36.3415591876275
356,2364,38676,동구,겨울이네 아이스크림,대전광역시 동구 충정로139번길6,자양동,127.449066122136,36.3423647209506
357,2370,4517,동구,경남 침구,대전광역시 동구 중앙로200번길 70,원동,127.432746795187,36.3274480230318
358,2385,20708,동구,경노치과의원,대전광역시 동구 판암2동 678-27,판암동,36.3208705,127.45456371286369
359,2386,4779,동구,경덕이네,대전광역시 동구 중앙로200번길 25 ,중동,127.432174500218,36.3297137589406
360,2388,368,동구,경동 오징어 국수,대전광역시 동구 계족로 369 ,성남동,127.433177225278,36.3447853477087
361,2389,4001,동구,경동기계상사,대전광역시 동구 대전로 780 ,원동,127.433918848011,36.3293740938192
362,2392,33963,동구,경동나비엔동구중앙대리점 ,대전광역시 동구 동대전로 207,자양동,127.448643883801,36.3401203108713
363,2399,34128,동구,경무고려태권도장,대전광역시 동구 한밭대로1237번길 74 ,용전동,127.436380929705,36.359492187049
364,2404,25826,동구,경상도떡집,대전광역시 동구 대전로 874-1,삼성동,127.43023898491,36.3373593784584
365,2407,1518,동구,경성 알앤비 볼링장,대전광역시 동구 동서대로 1605 ,홍도동,127.429353023349,36.3457188868356
366,2416,5267,동구,경성사,대전광역시 동구 중앙로200번길 69-5 ,원동,127.433206020165,36.3279991412328
367,2417,5271,동구,경성상회,대전광역시 동구 중앙로200번길 73,원동,127.433361517998,36.3277821149337
368,2427,32974,동구,경성화로,대전광역시 동구 동서대로1748번길 152,가양동,127.450323327516,36.3488134723206
369,2437,19720,동구,경원상회,대전광역시 동구 중앙로200번길 85 ,원동,127.433634919595,36.3272971013934
370,2441,19359,동구,경원한복,대전광역시 동구 중앙로200번길 85 ,원동,127.433634919595,36.3272971013934
371,2454,2703,동구,경충상회,대전광역시 동구 대전로785번길 6 ,중동,127.432937420587,36.3298160750656
372,2456,1184,동구,경헤어스토리,대전광역시 동구 홍도로 17,홍도동,127.429608975526,36.3478007599996
373,2457,22239,동구,경화걸렉션,대전광역시 동구 중앙로200번길 99,원동,127.433958423963,36.3267298982229
374,2460,6030,동구,경희대 파란 태권도,대전광역시 동구 옥천로180번길 15,판암동,127.460973423912,36.3167591686341
375,2464,31210,동구,경희대우성체육관 ,대전광역시 동구 가양로68번길 2 ,가양동,127.442333230908,36.3423587408428
376,2469,29003,동구,경희대주한의원,대전광역시 동구 대전천동로 496 ,인동,127.433373487446,36.3256999927981
377,2475,12494,동구,경희성모연합의원,대전광역시 동구 동서대로 1689,용전동,127.436693888994,36.350315576746
378,2476,12486,동구,경희성모연합한의원,대전광역시 동구 동서대로 1689,용전동,127.436693888994,36.350315576746
379,2478,9927,동구,경희용운한의원,대전광역시 동구 새울로 103-1 ,용운동,127.461575500282,36.327576639362
380,2484,25984,동구,경희학원,대전광역시 동구 계족로140번길 183,용운동,127.454525133638,36.3284130942266
381,2486,18485,동구,계동치킨,대전광역시 동구 가양2동 87-10 외1필지,가양동,0,0
382,2487,39900,동구,계동치킨,대전광역시 동구 대전로 326,대성동,127.460233649559,36.2969145487621
383,2488,20916,동구,계동치킨,대전광역시 동구 대성동 225-4,대성동,0,0
384,2489,30057,동구,계동치킨,대전광역시 동구 대전로 637 ,효동,127.439455200325,36.3173307228453
385,2501,10483,동구,계동치킨삼성점,대전광역시 동구 태전로 131 ,삼성동,127.421924339319,36.339797682961
386,2516,36128,동구,계룡문화사,대전광역시 동구 태전로 51-5,삼성동,127.427865549583,36.3345400102401
387,2524,20647,동구,계룡윤업사,대전광역시 동구 옥천로 147 ,판암동,36.3350621,127.4826149
388,2530,16029,동구,계룡카센타,대전광역시 동구 대종로 9 ,대성동,127.459286558893,36.2959977250051
389,2536,13628,동구,계림검도관,대전광역시 동구 동서대로1668번길 24,성남동,127.434958467704,36.3473146005414
390,2557,6777,동구,고구려명장식당,대전광역시 동구 백룡로57번길 184 ,자양동,127.449194848018,36.3410382498717
391,2572,17206,동구,고기마을,대전광역시 동구 새울로109번길 8-1 ,용운동,127.461302410137,36.3283497307255
392,2588,25015,동구,고깃집,대전광역시 동구 현암로 49 ,삼성동,127.417354861752,36.342220316212
393,2608,30347,동구,고래술상 우송대점,대전광역시 동구 백룡로6번길 60 ,자양동,127.44616568653,36.3338274933064
394,2612,345,동구,고려 함바식당,대전광역시 동구 새울로109번길 8-2,용운동,127.461544037083,36.3283601527343
395,2614,2441,동구,고려가방,대전광역시 동구 중앙로204번길 29 ,중동,127.432663907941,36.3296991916157
396,2615,27407,동구,고려내과의원,대전광역시 동구 우암로 172 ,성남동,127.436585974151,36.3408831146572
397,2619,33894,동구,고려빵집,대전광역시 동구 계족로432번길 1 ,용전동,127.432532485373,36.3502868248434
398,2621,27645,동구,고려수학원,대전광역시 동구 계족로 114,대동,127.446107488146,36.3244787313849
399,2625,27230,동구,"고려열쇠,게이트맨DC열쇠",대전광역시 동구 계족로432번길 1 ,용전동,127.432532485373,36.3502868248434
400,2626,29078,동구,고려의원 ,대전광역시 동구 태전로 165 ,삼성동,127.419217413303,36.3420484314834
401,2628,17405,동구,고려전자,대전광역시 동구 중동 318 홍명상가 73,중동,127.428395481546,36.3308343685882
402,2630,32806,동구,고려치과,대전광역시 동구 성남동 56 고려크리닉4층,성남동,0,0
403,2643,25235,동구,고모네,대전광역시 동구 옥천로 202-7,판암동,127.462597433578,36.3179470447324
404,2644,16943,동구,고모네반찬,대전광역시 동구 새울로 103,용운동,127.461441681622,36.3275093876571
405,2664,23838,동구,고봉민김밥인,대전광역시 동구 은어송로 42-25,가오동,127.455597923255,36.3054601669799
406,2682,9017,동구,고속가스충전소,대전광역시 동구 동서대로 1660 ,성남동,127.434494494131,36.3479166502488
407,2701,36999,동구,고운빛사랑 홈통증케어,대전광역시 동구 옥천로180번길 47-2,판암동,127.462764378165,36.3158216932373
408,2703,13638,동구,고운세상(화장품),대전광역시 동구 계족로 480 ,용전동,127.433041727776,36.3545746535621
409,2712,26495,동구,고윤나미용상회,대전광역시 동구 동산초교로23번길 15,홍도동,127.425752652845,36.3463479009306
410,2714,7280,동구,고은모터스,대전광역시 동구 대동초등3길 5 ,대동,127.445842994424,36.3260625446532
411,2718,17013,동구,고은슈퍼,대전광역시 동구 옻밭2길 125 ,판암동,127.452225322169,36.3195885762613
412,2724,20523,동구,고전계량한복,대전광역시 동구 중앙로200번길 73,원동,127.433361517998,36.3277821149337
413,2743,33674,동구,고향산천,대전광역시 동구 동대전로 306 ,가양동,127.444465851661,36.3480865276217
414,2747,28619,동구,고향에맛,대전광역시 동구 백룡로5번길 81 ,자양동,127.449315644605,36.339650708575
415,2749,26232,동구,고향주유소,대전광역시 동구 산내로 562 ,상소동,127.453727980787,36.2288196969363
416,2752,26723,동구,고향촌칼국수,대전광역시 동구 대학로 91 ,용운동,127.457192165123,36.3379068930297
417,2759,24522,동구,곤지암한우소머리국밥,대전광역시 동구 한남로 2-1,홍도동,127.427818000838,36.3515062320984
418,2762,26321,동구,곤지암할매소머리국밥(대전홍도점),대전광역시 동구 옛신탄진로67번길 26-4,홍도동,127.421724775219,36.3457764200924
419,2775,16381,동구,골드매니아,대전광역시 동구 대전로797번길 12 ,중동,127.432198625276,36.3305932197435
420,2777,27441,동구,골드박스,대전광역시 동구 대전로797번길 19,중동,127.431834460799,36.3302963368177
421,2782,1926,동구,골드인,대전광역시 동구 대전로 799-1 ,중동,127.43247814966,36.3309308706392
422,2783,28031,동구,골드젬,대전광역시 동구 은어송로 72,가오동,127.457985837078,36.3069678174478
423,2793,349,동구,골든래빗,대전광역시 동구 신기로101번길 32,가오동,127.456017597032,36.3112219650044
424,2795,35844,동구,골든타임,대전광역시 동구 대전로797번길 5 ,중동,127.432586317079,36.3304714200523
425,2797,3023,동구,골목 회 포차,대전광역시 동구 대전로 643-1,효동,127.439151862059,36.3178858817864
426,2803,6024,동구,골목대장,대전광역시 동구 대전로 436-59 ,가오동,127.454021805487,36.3065167574872
427,2807,15791,동구,골목식당,대전광역시 동구 가양로 42-1 ,가양동,127.44166489471,36.3399348910961
428,2810,25496,동구,골방집,대전광역시 동구 대전로839번길 9,정동,127.430738553243,36.3340226889864
429,2820,17698,동구,곰다방,대전광역시 동구 계족로392번길 102,성남동,127.437829927775,36.3484361684684
430,2822,3027,동구,곰두리축산,대전광역시 동구 대전로 679 ,인동,127.437888651823,36.3210754579378
431,2824,22803,동구,곰수산,대전광역시 동구 옥천로 116 ,판암동,127.45318919252,36.3170588358451
432,2826,22804,동구,곰수산 회 수산물센타,대전광역시 동구 옥천로 116,판암동,127.45318919252,36.3170588358451
433,2834,1868,동구,곱깨비 복합터미널점,대전광역시 동구 동서대로1678번길 33 ,성남동,127.436628443622,36.3472936410944
434,2843,18087,동구,곱창고(대전우송대점),대전광역시 동구 동대전로 128,대동,127.445780747425,36.3335127974133
435,2852,1592,동구,공간,대전광역시 동구 대전로 308 ,대성동,127.461069273852,36.2955529802618
436,2857,4097,동구,공간 장식,대전광역시 동구 중앙로204번길 75 ,원동,127.433791445459,36.3278285880858
437,2861,34968,동구,공간디자인,대전광역시 동구 태전로 115,삼성동,127.423086700299,36.3387929987971
438,2874,64,동구,공감,대전광역시 동구 계족로483번길 53 ,용전동,127.429491129694,36.3549832634392
439,2881,36758,동구,공강,대전광역시 동구 백룡로6번길 17,자양동,127.447499016027,36.3354248878001
440,2890,31632,동구,공룡미술교습소,대전광역시 동구 동대전로256번길 16-10 ,가양동,127.447856043519,36.3440715791028
441,2892,8288,동구,공릉동멸치국수,대전광역시 동구 동대전로 198,자양동,127.449024631855,36.3391926540423
442,2900,29757,동구,공방퀸스올,대전광역시 동구 동대전로154번길 15-1,자양동,127.44769645126,36.3353975637226
443,2907,39763,동구,공사장 카페,대전광역시 동구 우암로286-1,가양동,127.44752610008,36.3460778360048
444,2910,12132,동구,공성기계A/S센터,대전광역시 동구 대전로 764 ,원동,127.434731531304,36.3281295899646
445,2915,35148,동구,공신의숲 대전용운점,대전광역시 동구 용운로 83,용운동,127.451625349475,36.3273722338174
446,2923,23695,동구,공익사,대전광역시 동구 원동 60-2 국제시장 8,원동,127.432479730591,36.3280933309314
447,2926,38823,동구,공임나라 용운점,대전광역시 동구 계족로140번길114 ,용운동,127.450760441701,36.3272747472524
448,2930,1180,동구,공주 순대국밥,대전광역시 동구 은어송로51번길 7 ,가오동,127.454860933214,36.3061442646415
449,2938,17860,동구,공주사,대전광역시 동구 중앙로194번길 34 ,원동,127.431515261883,36.3290645001617
450,2940,19141,동구,공주수예,대전광역시 동구 중앙로200번길 85 ,원동,127.433634919595,36.3272971013934
451,2960,22981,동구,공주칼국수쭈꾸미구이,대전광역시 동구 대전로 422-19,가오동,127.454776399936,36.3048166987631
452,2967,10346,동구,공차,대전광역시 동구 은어송로 72,가오동,127.457985837078,36.3069678174478
453,2984,36929,동구,과일곳간,대전광역시 동구 대전로 446,가오동,127.45263976764,36.3058293517662
454,2986,25187,동구,과일나라,대전광역시 동구 동구청로 89-2,가오동,127.456979499438,36.3062750570675
455,2996,12086,동구,과일매니저,대전광역시 동구 계족로 492,용전동,36.3552005,127.4315189
456,2997,16389,동구,과일사랑,대전광역시 동구 새울로 99 ,용운동,127.461537093234,36.3273338307349
457,3007,37336,동구,과일친구,대전광역시 동구 대전로542번길 80-71,천동,127.447084944397,36.31615189677
458,3009,32788,동구,과일탐정,대전광역시 동구 대전로542번길 80-71,천동,127.447084944397,36.31615189677
459,3017,18097,동구,곽노선헤어필,대전광역시 동구 보문로 4,효동,127.44008928181,36.3153729238461
460,3024,35609,동구,관리짐헬스케어,대전광역시 동구 용운로 117 ,용운동,127.455301991443,36.3281325753566
461,3026,36020,동구,관사촌커피,대전광역시 동구 수향길 47 ,소제동,127.437238808787,36.3365549086691
462,3097,29544,동구,광개토기획,대전광역시 동구 계족로521번길 2 ,용전동,127.432213015783,36.3585556988702
463,3104,19235,동구,광고타운그린,대전광역시 동구 우암로50번길 9 ,삼성동,127.425080203229,36.3356383893489
464,3107,32568,동구,광동한의원,대전광역시 동구 계족로 426,용전동,127.432540785862,36.3497533002222
465,3119,28696,동구,광명카 인테리어 ,대전광역시 동구 대전로 459-3 ,가오동,127.451352841513,36.306475766715
466,3121,25879,동구,광명카센타,대전광역시 동구 우암로 355 ,가양동,127.452096548335,36.3507105940731
467,3124,28274,동구,광목나라,대전광역시 동구 대전로779번길 12,원동,127.432956682047,36.3292110456195
468,3126,29167,동구,광목나라 ,대전광역시 동구 중앙로200번길 73,원동,127.433361517998,36.3277821149337
469,3131,20766,동구,광무이동통신,대전광역시 동구 우암로 225 ,가양동,127.441521125834,36.3435915761257
470,3147,458,동구,광장수족관,대전광역시 동구 계족로 385 ,성남동,127.432480922541,36.3462411027613
471,3149,34663,동구,광정상회,대전광역시 동구 중앙로194번길 28-1 ,중동,127.431336852308,36.3292683594289
472,3152,20723,동구,광주식당,대전광역시 동구 우암로 282 ,가양동,127.447057109626,36.3458424927184
473,3154,16327,동구,광지,대전광역시 동구 중동 나열 88호,중동,0,0
474,3160,35570,동구,광천상회,대전광역시 동구 정동 1-158,정동,127.433844466567,36.3301001712012
475,3164,10894,동구,광천즉석김구이,대전광역시 동구 역전시장길 15 ,정동,127.434002589694,36.3305970463854
476,3169,26946,동구,광흥제면,대전광역시 동구 신안동 282-16번지 293-24,신안동,0,0
477,3183,23043,동구,교반,대전광역시 동구 홍도로43번길 11,홍도동,127.427835721254,36.349593608437
478,3186,10344,동구,교암상사,대전광역시 동구 계족로358번길 45 ,성남동,127.436577237639,36.3443070679868
479,3195,18470,동구,교촌치킨,대전광역시 동구 동대전로 93,대동,127.443601824496,36.330819450617
480,3203,38317,동구,교촌치킨 낭월점,대전광역시 동구 산내로 1333,낭월동,127.466757111486,36.2823409536943
481,3208,7047,동구,교촌치킨 비래점,대전광역시 동구 충정로 5,가양동,127.452348831582,36.3490657203243
482,3213,33944,동구,교촌치킨가오천동점,대전광역시 동구 신기로 123-39 ,가오동,127.457481338503,36.3110448782871
483,3233,16700,동구,구당인술교육연구협동조합,대전광역시 동구 동산초교로 15,홍도동,127.427206014407,36.3457690267313
484,3245,25219,동구,구룡포회수산,대전광역시 동구 우암로 249 ,가양동,127.44370251972,36.3447452900472
485,3250,38245,동구,구름 들,대전광역시 동구 용대길 50,용운동,127.448700635872,36.3250583043975
486,3252,29535,동구,구름식당,대전광역시 동구 계족로 184-29 ,대동,127.443092355336,36.3313044607361
487,3256,13095,동구,구모카페,대전광역시 동구 계족로 184-29 ,대동,127.443092355336,36.3313044607361
488,3260,34408,동구,구본석치과,대전광역시 동구 동대전로 290,가양동,127.445249987068,36.3468131345501
489,3273,3007,동구,구사네,대전광역시 동구 중앙로194번길 27 ,중동,127.431551344636,36.3294074477533
490,3277,22460,동구,구세약국,대전광역시 동구 동대전로 82 ,대동,127.443446249286,36.3298199931066
491,3289,20289,동구,구어가,대전광역시 동구 새울로 90 ,용운동,127.461779758799,36.3263694465453
492,3290,24914,동구,구엔샤,대전광역시 동구 계족로140번길 91,용운동,127.449492821952,36.3270222352639
493,3295,2693,동구,구이구이 쪽갈비,대전광역시 동구 은어송로51번길 29,가오동,127.454117624153,36.3068737110288
494,3309,26086,동구,구일약국,대전광역시 동구 대전로 646,효동,127.44176790469,36.3188802445439
495,3311,14107,동구,구제갤러리,대전광역시 동구 중동 28-12.28-50,중동,0,0
496,3314,38021,동구,구제천사,대전광역시 동구 대전천동로 542-2 ,중동,127.430501537619,36.3292048641808
497,3321,9720,동구,구피 가오점,대전광역시 동구 대전로448번길 19,가오동,127.452976499478,36.3065100887442
498,3322,29581,동구,구피샵,대전광역시 동구 중교로 129,원동,127.433307848658,36.3287899149651
499,3331,4763,동구,구피샵 성남점,대전광역시 동구 계족로368번길 11,성남동,127.434935283112,36.346270585113
500,3346,26252,동구,국가대표 대전가양점,대전광역시 동구 비래서로 54-1 ,가양동,127.450467749005,36.353984486102
501,3348,37502,동구,국가대표 울림태권도,대전광역시 동구 대전로542번길 95,천동,127.444507662809,36.3155472652325
502,3360,31105,동구,국가대표태권도,대전광역시 동구 대전로316번길 31-21,대성동,127.461015279089,36.2975013599337
503,3381,24172,동구,국본가24시수육국밥,대전광역시 동구 우암로 351-1,가양동,127.451992247366,36.3505131812801
504,3382,16126,동구,국본가수육국밥 우송대점,대전광역시 동구 동대전로 153-7,자양동,127.446244919079,36.3357094818588
505,3384,14553,동구,국선도,대전광역시 동구 계족로368번길 22 ,성남동,127.434898211793,36.3446723079388
506,3388,36551,동구,국세상,대전광역시 동구 대전로867번길 41 ,삼성동,127.428266744213,36.335618632339
507,3392,9202,동구,국수걸덮밥맨,대전광역시 동구 동대전로 135-1 ,자양동,127.445670318456,36.3343248977594
508,3404,9903,동구,국수나무가오점,대전광역시 동구 은어송로 50 ,가오동,127.45539338577,36.3056312691132
509,3417,621,동구,국수한그릇,대전광역시 동구 신기로 123-15 ,가오동,127.458444538074,36.3117184237851
510,3431,32407,동구,국제교역,대전광역시 동구 충무로 219,인동,127.440235253078,36.3225191758149
511,3435,25829,동구,국제미용실,대전광역시 동구 동서대로1572번길 189 ,성남동,127.434754970815,36.3405463519951
512,3437,17343,동구,국제사,대전광역시 동구 중앙로 지하 200,중동,127.431162001818,36.330664101385
513,3445,27803,동구,국제오토바이,대전광역시 동구 대전로900번길 2 ,삼성동,127.428623142102,36.339070027685
514,3449,24880,동구,국제카크리닉,대전광역시 동구 계족로140번길 114 ,용운동,127.450760441701,36.3272747472524
515,3452,37877,동구,국제표준금거래소(가오점),대전광역시 동구 은어송로 55,가오동,127.4553612211,36.3061887708761
516,3454,16358,동구,국제헤어샵,대전광역시 동구 계족로 88 ,신흥동,127.445124569349,36.3221877292501
517,3466,17187,동구,군서상회,대전광역시 동구 충무로 185,인동,127.436652059271,36.3217881267744
518,3469,35694,동구,굳세어라김치찜동구점,대전광역시 동구 백룡로11번길 147,자양동,127.450145806752,36.3420874230651
519,3471,10535,동구,굳쌤학원,대전광역시 동구 대전로 703,인동,127.436865734777,36.323019976292
520,3474,23226,동구,굴세상,대전광역시 동구 중교로 130-8 ,원동,127.433532513827,36.3284328652271
521,3481,25024,동구,굴자랑,대전광역시 동구 가양로 95 ,가양동,127.442085641991,36.3448284228742
522,3482,11003,동구,굽네치킨,대전광역시 동구 흥룡로65번길 60 ,가양동,127.447548400726,36.3515705815843
523,3494,34254,동구,굽네치킨가오점,대전광역시 동구 신기로101번길 30-10,가오동,127.456348674156,36.310980627745
524,3496,30214,동구,굽네치킨대전우송대점,대전광역시 동구 동대전로131번길 14,자양동,127.445039372626,36.3343291413226
525,3504,21423,동구,굿(good)아이스크림 할인점,대전광역시 동구 용운로1번길 21,대동,127.444457842921,36.3296602421128
526,3506,39314,동구,굿데이패션,대전광역시 동구 중앙로204번길 59,원동,127.433343511469,36.3284924875596
527,3508,27385,동구,굿데일리,대전광역시 동구 은어송로52번길 13,가오동,127.456042316368,36.3055431834856
528,3519,23175,동구,굿맨컷트클럽,대전광역시 동구 비래서로42번길 13 ,가양동,127.448893450103,36.3534240239739
529,3523,39325,동구,굿모닝네일,대전광역시 동구 동대전로46번길128,인동,127.441416508938,36.3228982702537
530,3525,9958,동구,굿모닝디지털프린텍,대전광역시 동구 선화로 187 ,삼성동,127.426549292895,36.333587396016
531,3529,12785,동구,굿모닝보청기,대전광역시 동구 대전로 814,정동,127.432407384822,36.3321931336146
532,3535,24140,동구,굿모닝약국,대전광역시 동구 은어송로 73,가오동,127.456859475073,36.3072486087388
533,3557,4593,동구,굿타임 모텔,대전광역시 동구 동서대로1705번길 67 ,용전동,127.437824731688,36.3528403100164
534,3558,29547,동구,굿푸드,대전광역시 동구 태전로126번길 22 ,삼성동,127.423589242469,36.3400206919674
535,3559,17096,동구,굿후렌드,대전광역시 동구 성동로13번길 50 ,자양동,127.45188193066,36.3394033029184
536,3573,22639,동구,궁맛묵은지,대전광역시 동구 대전로472번길 27 ,가오동,127.452484252129,36.308474089709
537,3575,27982,동구,궁전노래방,대전광역시 동구 대동로 6 ,대동,127.446112833267,36.3336022165573
538,3588,29473,동구,권디자인 ,대전광역시 동구 동산초교로45번길 12,홍도동,127.424462177721,36.3473042214963
539,3595,36797,동구,권선아,대전광역시 동구 백룡로 138,용운동,127.454698926005,36.3306646511047
540,3599,11698,동구,권정아음악학원,대전광역시 동구 동대전로248번길 19,가양동,127.448169833172,36.3441090630721
541,3605,670,동구,권홍헤어,대전광역시 동구 은어송로 59,가오동,127.455804773441,36.3064901471092
542,3610,6025,동구,귀로 식당,대전광역시 동구 세천공원로 64 ,세천동,127.484080318817,36.3301751854609
543,3620,35534,동구,귀한족보,대전광역시 동구 계족로463번길 40,용전동,127.43017337487,36.353398620295
544,3624,446,동구,규수방,대전광역시 동구 용운로 160 ,용운동,127.460036888882,36.3278755433756
545,3625,4436,동구,규수방,대전광역시 동구 중앙로194번길 34 ,원동,127.431515261883,36.3290645001617
546,3646,21693,동구,그때거기,대전광역시 동구 우암로 258,가양동,127.444780448869,36.3447769694241
547,3648,2698,동구,그때그집식당,대전광역시 동구 대전로791번길 28 ,중동,127.431647431656,36.3298061416783
548,3657,2991,동구,그래그래피자떡볶이,대전광역시 동구 동대전로 263,가양동,127.446291323457,36.3445267580154
549,3689,10552,동구,그리고만드는미술교습소,대전광역시 동구 동대전로248번길 13,가양동,127.447951420648,36.3439395601619
550,3690,7611,동구,그리고미술교습소,대전광역시 동구 성남로28번길 14,성남동,127.431433417187,36.3439932156684
551,3699,39578,동구,그리다,대전광역시 동구 대전천동로 166,가오동,127.454346404875,36.3031841349635
552,3702,22262,동구,그리다미술학원,대전광역시 동구 은어송로 55,가오동,127.4553612211,36.3061887708761
553,3704,17565,동구,그리다헤어,대전광역시 동구 동구청로 67,가오동,127.457215836363,36.3056962273781
554,3706,3161,동구,그리에이트 대전지사,대전광역시 동구 태전로 2,중동,127.431368077681,36.3309930981788
555,3715,2242,동구,그린 수예점,대전광역시 동구 중앙로204번길 16-1 ,중동,127.432108815301,36.3301419650559
556,3720,28711,동구,그린LED,대전광역시 동구 동대전로 319,가양동,127.443191837561,36.3489043879198
557,3743,22598,동구,그린뷰헤어샵,대전광역시 동구 한밭대로1237번길 52,용전동,127.437456123496,36.358561220014
558,3745,21651,동구,그린브라우니,대전광역시 동구 대전로448번길 70,가오동,127.455539704266,36.30751039074
559,3751,21582,동구,그린브라우니 낭월점,대전광역시 동구 산내로1257번길 63,낭월동,127.466648444067,36.2765014441721
560,3764,40102,동구,그린슈퍼,대전광역시 동구 산서로1660번길 56,대별동,127.46228086939,36.2873707155667
561,3765,24310,동구,그린스포츠,대전광역시 동구 홍도동 137-1,홍도동,127.420566431701,36.3451890615512
562,3772,12662,동구,그린오일뱅크,대전광역시 동구 대전로 579 ,천동,127.441373360196,36.3124603573595
563,3773,25832,동구,그린오토밋션,대전광역시 동구 옥천로 60-1 ,신흥동,127.447551317757,36.3196227491842
564,3776,12450,동구,그린이동통신,대전광역시 동구 동서대로1748번길 85,가양동,127.447084095657,36.3502120897274
565,3786,38430,동구,그린카센타,대전광역시 동구 신기로101번길 25-7,가오동,127.455868764522,36.3105018603601
566,3789,14407,동구,그린토마토,대전광역시 동구 계족로 184-91 ,자양동,127.444817148033,36.3337573618665
567,3793,32164,동구,그린프라자,대전광역시 동구 현암로 46 ,삼성동,127.417653075172,36.3427242928139
568,3801,27267,동구,그린필피부,대전광역시 동구 동서대로 1610-2,성남동,127.429994741231,36.3454687566587
569,3805,16144,동구,그린헤어샵,대전광역시 동구 옥천로176번길 22,판암동,127.459479936595,36.315964042281
570,3807,7430,동구,그림,대전광역시 동구 용운로151번길 6,용운동,127.459309812845,36.3284181437637
571,3810,32189,동구,그림그라픽스 ,대전광역시 동구 동대전로 158 ,자양동,127.447146719035,36.335854354578
572,3833,2689,동구,근대세탁,대전광역시 동구 대전로542번길 121,천동,127.442910279718,36.3148163911269
573,3839,31919,동구,근화내과,대전광역시 동구 계족로 362 ,성남동,127.434066050389,36.3444243564852
574,3840,31921,동구,근화내과,대전광역시 동구 계족로 362 ,성남동,127.434066050389,36.3444243564852
575,3841,2444,동구,근화떡집,대전광역시 동구 중앙로200번길 24-1,중동,127.431836172846,36.3296176547525
576,3852,12151,동구,글라스패밀리 (GLASS  FAMILY),대전광역시 동구 옥천로 183,판암동,127.460254904294,36.317924185452
577,3857,7966,동구,글로리아 제과점,대전광역시 동구 역전시장길 2 ,중동,127.433373502684,36.3305696803549
578,3865,20425,동구,글로벌스포츠,대전광역시 동구 한밭대로1237번길 45-9,용전동,127.436467270567,36.3587327245897
579,3876,2293,동구,금강 참숯 민물장어,대전광역시 동구 석천로 6 ,낭월동,127.46602980933,36.2766445311799
580,3881,1290,동구,금강마트,대전광역시 동구 동서대로1770번길 47,가양동,127.446217770535,36.3528768508639
581,3886,14453,동구,금강산축산,대전광역시 동구 대전로 786-1 ,원동,127.433683014325,36.3298663611955
582,3889,1935,동구,금강상사,대전광역시 동구 우암로296번길 39 ,가양동,127.44979089306,36.3452411547567
583,3898,13131,동구,금강약국,대전광역시 동구 대전로 786-1 ,원동,127.433683014325,36.3298663611955
584,3905,8824,동구,금강의원,대전광역시 동구 동서대로 1632 ,성남동,127.431854144074,36.3469570991147
585,3907,22214,동구,금강정육점,대전광역시 동구 흥룡로37번길 19 ,가양동,127.446741398977,36.3493309430064
586,3917,2238,동구,금남포장,대전광역시 동구 중동 78,중동,0,0
587,3926,33731,동구,금보라,대전광역시 동구 중앙로200번길 63-1,원동,127.433077977522,36.32812613043
588,3927,25523,동구,금보석,대전광역시 동구 동부로 73,판암동,127.458472364496,36.3231066737681
589,3929,15982,동구,금복축산,대전광역시 동구 용운로164번길 10,용운동,127.460279371501,36.3275015231419
590,3932,4102,동구,금비의상실,대전광역시 동구 원동 65 139,원동,0,0
591,3933,37337,동구,금비통닭,대전광역시 동구 충정로139번길 6,자양동,127.449066122136,36.3423647209506
592,3935,27519,동구,금빛을그리다 공인중개사무소,대전광역시 동구 충무로 246 ,신흥동,127.443171841745,36.3229198918279
593,3944,25214,동구,금산삼계탕,대전광역시 동구 가양로80번길 6 ,가양동,127.442291818734,36.3431118250044
594,3948,359,동구,금산식당,대전광역시 동구 신기로 115 ,가오동,127.458213867462,36.3115544826868
595,3950,34435,동구,금산야채,대전광역시 동구 새울로 99 ,용운동,127.461537093234,36.3273338307349
596,3952,25522,동구,금산유리,대전광역시 동구 계족로 88 ,신흥동,127.445124569349,36.3221877292501
597,3960,29620,동구,금성,대전광역시 동구 태전로123번길 24-1 ,삼성동,127.421459406698,36.338743686764
598,3966,1272,동구,금성각,대전광역시 동구 대전로 436-27,가오동,127.454169627079,36.305665212614
599,3974,11649,동구,금성삼계탕,대전광역시 동구 선화로196번길 44 ,중동,127.428759139491,36.3321383281832
600,3975,1584,동구,금성식당,대전광역시 동구 충정로 28 ,가양동,127.454198040682,36.3483468696753
601,3995,15132,동구,금양 타이테라피,대전광역시 동구 대전천동로 530,원동,127.431260911066,36.328341503075
602,4000,29143,동구,금옥당 ,대전광역시 동구 성남로 2 ,성남동,127.433586170991,36.3442653291022
603,4012,1580,동구,금정,대전광역시 동구 대전로797번길 13 ,중동,127.432151312224,36.330415588754
604,4013,32329,동구,금정,대전광역시 동구 비래서로 60,가양동,127.450979520777,36.3540551000325
605,4014,16024,동구,금정사,대전광역시 동구 소제동 309-5,소제동,127.437983501918,36.3372679852416
606,4015,32675,동구,금정회관식당,대전광역시 동구 흥룡로 34 ,가양동,127.44769918857,36.3488175649743
607,4023,27306,동구,금촌한우정육식당,대전광역시 동구 계족로 322 ,성남동,127.436034999824,36.3410357124603
608,4024,4305,동구,금탑 오토바이 상사,대전광역시 동구 우암로 77 ,삼성동,127.427017736648,36.3371349135155
609,4026,10799,동구,금터잔치국수,대전광역시 동구 흥룡로37번길 19 ,가양동,127.446741398977,36.3493309430064
610,4030,27286,동구,금풍공예,대전광역시 동구 중앙로194번길 61,원동,127.432643713259,36.328201960074
611,4038,5529,동구,금화사,대전광역시 동구 중앙로200번길 85 ,원동,127.433634919595,36.3272971013934
612,4039,7975,동구,금화타올  지.티,대전광역시 동구 충무로 201-1 ,인동,127.438336320176,36.3220489811507
613,4040,24161,동구,급전,대전광역시 동구 산내로 1358 ,낭월동,127.466114692089,36.2843507523172
614,4042,7832,동구,기계우동,대전광역시 동구 용운로 33 ,대동,127.446804486223,36.3279628693474
615,4043,36504,동구,기구필라테스 더스타일,대전광역시 동구 새들2길 30,신흥동,127.44258283517,36.3262283113564
616,4047,13760,동구,기독문화사,대전광역시 동구 우암로 81-1 ,삼성동,127.427526940085,36.337371003355
617,4049,350,동구,기레이 헤어,대전광역시 동구 새들2길 30,신흥동,127.44258283517,36.3262283113564
618,4057,29769,동구,기림갤러리,대전광역시 동구 중앙로204번길 68 ,원동,127.433316450631,36.3280705647082
619,4063,10803,동구,기본초밥,대전광역시 동구 계족로431번길 5,용전동,36.3503278,127.4309844
620,4070,24771,동구,기쁜우리약국,대전광역시 동구 동구청로 205,판암동,127.456163307608,36.316145715283
621,4071,24770,동구,기쁜정형외과,대전광역시 동구 동구청로 205,판암동,127.456163307608,36.316145715283
622,4078,3231,동구,기성유통,대전광역시 동구 비래서로 54-1 ,가양동,127.450467749005,36.353984486102
623,4096,21493,동구,기찬민물,대전광역시 동구 계족로392번길 186,가양동,127.442156353312,36.3499073543462
624,4097,20856,동구,기찬순대,대전광역시 동구 백룡로 33,자양동,127.450518000604,36.3351113817986
625,4108,2229,동구,기호 양복점,대전광역시 동구 계족로391번길 1 ,성남동,127.432218955562,36.3465707987563
626,4109,33741,동구,기획출판오름,대전광역시 동구 선화로 217-3 ,삼성동,127.429321936338,36.3351640785095
627,4111,29583,동구,긴급열쇠,대전광역시 동구 우암로 192,가양동,127.441166181564,36.3404238179092
628,4114,16141,동구,길  가정의학과의원,대전광역시 동구 옥천로 170 ,판암동,127.459303683807,36.3167837997029
629,4119,25579,동구,길마루,대전광역시 동구 충무로 252-1 ,신흥동,127.443697145732,36.3231751389596
630,4121,36992,동구,길목카페,대전광역시 동구 대전로 699-3,인동,127.43706894858,36.3227360835363
631,4131,32094,동구,길약국,대전광역시 동구 대전로 619 ,효동,127.439992947934,36.3158659525654
632,4132,25218,동구,길조명,대전광역시 동구 우암로 319,가양동,127.450351834593,36.3478636187961
633,4142,26085,동구,김   포토스튜디오,대전광역시 동구 홍도로33번길 74-14,홍도동,127.426630399234,36.3508074727835
634,4145,30919,동구,김.이.박 대패삼겹살,대전광역시 동구 옥천로176번길 15-1,판암동,127.45985703113,36.3164274195107
635,4154,11527,동구,김가네김밥,대전광역시 동구 동구청로 101,가오동,127.456169939554,36.3070582092672
636,4161,13991,동구,김가네짬뽕,대전광역시 동구 산내로449번길 2,하소동,127.443494242108,36.224865337482
637,4170,11876,동구,김경훈치과의원,대전광역시 동구 은어송로 33,가오동,127.453486820826,36.3049797542328
638,4172,1588,동구,김귀옥 미용실,대전광역시 동구 계족로424번길 46 ,용전동,127.434885252849,36.3493732372591
639,4176,1217,동구,김나경 헤어 스토리,대전광역시 동구 동산초교로23번길 15,홍도동,127.425752652845,36.3463479009306
640,4182,37445,동구,김대감 한우국밥,대전광역시 동구 대전로 436-51,가오동,127.454315326216,36.3062333931566
641,4185,7774,동구,김도현헤어샵(김도현HAIR),대전광역시 동구 동서대로1572번길 157,성남동,127.433588145699,36.3417279756105
642,4200,5316,동구,김민경 아트 패션,대전광역시 동구 중앙로200번길 73,원동,127.433361517998,36.3277821149337
643,4204,24777,동구,김민정미용실,대전광역시 동구 동구청로204번길 46,판암동,127.458955195695,36.315520335727
644,4206,23069,동구,김민주홈아트,대전광역시 동구 중앙로200번길 85,원동,127.433634919595,36.3272971013934
645,4212,18721,동구,김밥  천국,대전광역시 동구 동서대로1668번길 41 ,성남동,127.435246943204,36.3464853716162
646,4218,23365,동구,김밥나라,대전광역시 동구 계족로 426 ,용전동,127.432540785862,36.3497533002222
647,4219,3880,동구,김밥나라,대전광역시 동구 계족로489번길 73,용전동,127.429073784009,36.3553072924848
648,4220,25013,동구,김밥나라,대전광역시 동구 현암로 47 ,삼성동,127.417669794813,36.3422465215531
649,4234,11956,동구,김밥나라(용운점),대전광역시 동구 용운로 157 ,용운동,127.4599125028,36.3281434909675
650,4244,6541,동구,김밥사랑,대전광역시 동구 새울로 102 ,용운동,127.461851165175,36.3274483285057
651,4253,7519,동구,김밥전쟁식당,대전광역시 동구 용운로151번길 65,용운동,127.460461108414,36.3308104798396
652,4255,25822,동구,김밥지존,대전광역시 동구 우암로 157 ,성남동,127.434878889644,36.3403356570919
653,4257,5469,동구,김밥천국,대전광역시 동구 동부로73번길 14,용운동,127.460645105652,36.3229212391172
654,4258,21458,동구,김밥천국,대전광역시 동구 동산초교로 41,홍도동,127.425129013224,36.3473659245142
655,4259,17953,동구,김밥천국,대전광역시 동구 정동 16-2번지 17통 8반,정동,127.432362234545,36.3322459256301
656,4260,11613,동구,김밥천국,대전광역시 동구 태전로 175 ,삼성동,127.418536415954,36.3426199103694
657,4269,4448,동구,김밥천국,대전광역시 동구 천동 514,천동,127.446728425466,36.3162756997031
658,4274,27621,동구,김밥천국 용전점,대전광역시 동구 계족로 455,용전동,127.432151246421,36.3524001934242
659,4289,21026,동구,김복남맥주 가오점,대전광역시 동구 은어송로 55,가오동,127.4553612211,36.3061887708761
660,4292,19762,동구,김봉석치과의원,대전광역시 동구 대전로779번길 5,원동,127.433441810303,36.3292287527337
661,4298,25527,동구,김상우비뇨기과,대전광역시 동구 옥천로 178-1 ,판암동,127.460229532465,36.3170558187321
662,4303,9832,동구,김석필내과,대전광역시 동구 동대전로 290 ,가양동,127.445249987068,36.3468131345501
663,4305,11705,동구,김선무정신과의원,대전광역시 동구 중동 77-2,중동,127.432523463058,36.3307666926077
664,4306,29726,동구,김선미헤어 ,대전광역시 동구 홍도로46번길 62 ,용전동,127.429291544791,36.3525190927425
665,4314,23928,동구,김설영학생복,대전광역시 동구 계족로 122,대동,127.445690753966,36.32510435078
666,4317,28949,동구,김소영한의원,대전광역시 동구 계족로368번길 4,성남동,127.433953748687,36.3447025962958
667,4319,19099,동구,김소희음악학원,대전광역시 동구 신기로 99 ,가오동,127.456865562853,36.3106397203464
668,4330,3028,동구,김승태내과,대전광역시 동구 충무로 193 ,인동,127.437338601099,36.3218065241871
669,4343,29989,동구,김영소아청소년과,대전광역시 동구 은어송로 63,가오동,127.456024158274,36.3066697265049
670,4346,660,동구,김영숙,대전광역시 동구 동대전로 127 ,대동,127.445226550536,36.3336935662484
671,4348,26300,동구,김영승내과의원,대전광역시 동구 효동 135-18 145-5번지 1층 107호,효동,0,0
672,4371,33318,동구,김일수비뇨기과,대전광역시 동구 계족로 174,대동,127.443355463665,36.3294830197463
673,4383,24887,동구,김정민토탈미용실,대전광역시 동구 계족로140번길 191 ,용운동,127.454835782013,36.3281694962235
674,4386,3164,동구,김정임헤어월드,대전광역시 동구 계족로483번길 54,용전동,127.429541374501,36.3551655702855
675,4394,26904,동구,김종현내과의원,대전광역시 동구 대전로779번길 5,원동,127.433441810303,36.3292287527337
676,4401,12796,동구,김지남한의원,대전광역시 동구 우암로 231,가양동,127.441964491683,36.3439103946758
677,4402,33451,동구,김지웅치과의원,대전광역시 동구 동서대로 1679,용전동,127.436049103898,36.3493796298443
678,4404,26218,동구,김진혁외과의원,대전광역시 동구 대전천동로 574 ,중동,127.428209039819,36.3315265092398
679,4417,19341,동구,김태명의원,대전광역시 동구 동부로 75 ,판암동,127.460790063745,36.3223851112956
680,4452,457,동구,까망머리 헤어나라,대전광역시 동구 태전로126번길 16 ,삼성동,127.423279459747,36.3398128070504
681,4458,14978,동구,까몽(Camon),대전광역시 동구 대동천우안5길 38,소제동,127.438625379265,36.3353153080202
682,4464,4914,동구,까치네,대전광역시 동구 중앙로200번길 25 ,중동,127.432174500218,36.3297137589406
683,4470,20783,동구,까투리꼬치체인점,대전광역시 동구 동서대로1748번길 144 ,가양동,127.449869846037,36.3489545918227
684,4481,39778,동구,까페오다,대전광역시 동구 동서대로1689,용전동,127.436693888994,36.350315576746
685,4489,37649,동구,깐초 마라탕,대전광역시 동구 대전로 446,가오동,127.45263976764,36.3058293517662
686,4492,15396,동구,깔끔스팀세차,대전광역시 동구 대전로 646,효동,127.44176790469,36.3188802445439
687,4493,19627,동구,깔롱헤어,대전광역시 동구 대전로 637 ,효동,127.439455200325,36.3173307228453
688,4500,25835,동구,깡통집식당,대전광역시 동구 계족로 106 ,신흥동,127.445984927324,36.3235695409944
689,4504,23439,동구,깻잎두마리치킨,대전광역시 동구 새울로109번길 38 ,용운동,127.459801488123,36.3285833312681
690,4508,11194,동구,깻잎두마리치킨 우송대점,대전광역시 동구 이화로 44,대동,127.447730783798,36.3312564448241
691,4530,16845,동구,꼬꾸마시,대전광역시 동구 용운로 141-1 ,용운동,127.458166186032,36.3282176958386
692,4533,37900,동구,꼬꾸마시(우송점),대전광역시 동구 동대전로 128 ,대동,127.445780747425,36.3335127974133
693,4539,28833,동구,꼬끼오옛날통닭 ,대전광역시 동구 용운로 117,용운동,127.455301991443,36.3281325753566
694,4541,16108,동구,꼬따쥬,대전광역시 동구 중교로 130 ,원동,127.43341588309,36.3285893719723
695,4555,16152,동구,꼬막시장가오점,대전광역시 동구 대전로 487,가오동,127.449796648818,36.3088632676354
696,4571,2686,동구,꼬치의품격 대전가오점,대전광역시 동구 은어송로51번길 7,가오동,127.454860933214,36.3061442646415
697,4573,11398,동구,꼴통자동차유리,대전광역시 동구 산서로 1604-28 ,대별동,127.458485353257,36.2853057613657
698,4574,7141,동구,꼼꼼네일,대전광역시 동구 신기로 123-39,가오동,127.457481338503,36.3110448782871
699,4587,35776,동구,꽁꽁24  용전점,대전광역시 동구 계족로469번길 4,용전동,127.432277156306,36.353814489205
700,4589,38984,동구,꽁꽁24용전사거리점,대전광역시 동구 계족로464번길9-5,용전동,127.433102818485,36.3532341180427
701,4590,33602,동구,꽁꽁24판암점,대전광역시 동구 대동천우안1길 70,판암동,127.448629143336,36.3202794519768
702,4603,18709,동구,꽃 짙은,대전광역시 동구 백룡로 36-1,자양동,127.450439512541,36.3346920004902
703,4604,30597,동구,꽃가마한복 ,대전광역시 동구 중앙로200번길 65,원동,127.433104393474,36.3280695309438
704,4617,36407,동구,꽃길회센타,대전광역시 동구 옥천로 130,판암동,127.454527501984,36.316873158665
705,4618,39790,동구,꽃길회센타,대전광역시 동구 장수1길28,신흥동,127.44537116622,36.3222924286385
706,4622,31801,동구,꽃남꽃녀헤어,대전광역시 동구 계족로368번길 11,성남동,127.434935283112,36.346270585113
707,4624,8633,동구,꽃님이김밥,대전광역시 동구 대학로 102-7,용운동,127.458815172001,36.3395227864059
708,4628,9799,동구,꽃댕기미용실,대전광역시 동구 가양동 419-16번지,가양동,127.443904173284,36.3461437032087
709,4642,39167,동구,꽃비,대전광역시 동구 회남로58번길19-36 ,신상동,127.498845386647,36.3538871177649
710,4668,10826,동구,꽃카롱,대전광역시 동구 백룡로 36-1,자양동,127.450439512541,36.3346920004902
711,4678,13558,동구,꽃피는헤어,대전광역시 동구 산내로1287번길 5 ,낭월동,127.468623786558,36.2783675494542
712,4693,27350,동구,꾸러기문구,대전광역시 동구 동대전로 105-10 ,대동,127.444105822439,36.3321973689818
713,4699,8094,동구,꾸미지오헤어샵,대전광역시 동구 가양동 25-17번지,가양동,127.445769943535,36.3500288344103
714,4704,39048,동구,꾸브라꼬숯불두마리치킨 한남대점,대전광역시 동구 한남로8번길 6,홍도동,127.427510012178,36.3516776561083
715,4708,17075,동구,꾹이네고기,대전광역시 동구 계족로140번길 87,용운동,127.449332677175,36.3269843571817
716,4709,32537,동구,꿀같은밤,대전광역시 동구 합내로 50-1,가양동,127.440427285647,36.3476151172462
717,4719,20910,동구,꿀쟁이,대전광역시 동구 충정로 136,가양동,127.448909230153,36.343869459442
718,4724,624,동구,꿈꾸는 커피공장,대전광역시 동구 대전로448번길 85-25,가오동,127.45551578659,36.3093516800246
719,4728,28888,동구,꿈꾸는농부 ,대전광역시 동구 산내로 716 ,상소동,127.46712022042,36.2358282637899
720,4732,22493,동구,꿈꾸는작업실미술교습소,대전광역시 동구 산내로 1301,낭월동,127.468239011815,36.2796334158191
721,4738,21323,동구,꿈에그린미술교습소,대전광역시 동구 대학로50번길 53,용운동,127.457069440528,36.3320194478701
722,4745,38507,동구,꿈엔들,대전광역시 동구 송촌남로11번길 212,용전동,127.433459104299,36.3595645526951
723,4754,19792,동구,꿉자,대전광역시 동구 우암로 323 ,가양동,127.4506708137,36.3481801698137
724,4775,27274,동구,나나,대전광역시 동구 중앙로200번길 70,원동,127.432746795187,36.3274480230318
725,4783,27038,동구,나노닥터,대전광역시 동구 갱이3길 18,가양동,127.442596319122,36.338280223123
726,4784,9496,동구,나노메디컬,대전광역시 동구 태전로 52,삼성동,127.428378118327,36.3348441233169
727,4791,39029,동구,나눔약국,대전광역시 동구 은어송로 33,가오동,127.453486820826,36.3049797542328
728,4792,31042,동구,나눔열쇠,대전광역시 동구 동서대로 1579,홍도동,127.427278470337,36.3447991042821
729,4794,33117,동구,나눔카센타 ,대전광역시 동구 용운로 99,용운동,127.453292563522,36.3277756873172
730,4800,29749,동구,나도야막창구이,대전광역시 동구 계족로140번길 178 ,용운동,127.453959694921,36.3281053287923
731,4807,30081,동구,나드리푸드,대전광역시 동구 판교1길 34,판암동,127.452693023751,36.3188169302917
732,4817,33186,동구,나라메디칼,대전광역시 동구 우암로326번길 65 ,가양동,127.454498328813,36.34787874022
733,4823,17920,동구,나랑너랑식당,대전광역시 동구 우암로326번길 5,가양동,127.451471197969,36.3482529372436
734,4824,14303,동구,나래,대전광역시 동구 합내로 46,가양동,127.440504961121,36.3472051575234
735,4827,32559,동구,나래베이커리,대전광역시 동구 계족로368번길 18 ,성남동,127.434746719413,36.3446732196255
736,4837,13916,동구,나래정보통신,대전광역시 동구 중앙로 지하 200,중동,127.431162001818,36.330664101385
737,4847,9568,동구,나르샤헤어,대전광역시 동구 비래서로42번길 22 ,가양동,127.448475823723,36.3531980461546
738,4848,16026,동구,나르시스,대전광역시 동구 중동 317지하상가 가-52-53,중동,127.430517139303,36.3304212158619
739,4853,33093,동구,나리네반찬식당,대전광역시 동구 신기로 99,가오동,127.456865562853,36.3106397203464
740,4856,37026,동구,나린에프앤비(F&B),대전광역시 동구 대학로 68,용운동,127.456783353498,36.3356702995753
741,4860,39729,동구,나목향갤러리,대전광역시 동구 대전로447-12 ,가오동,127.451594097749,36.3055455596675
742,4875,16189,동구,나무이야기,대전광역시 동구 중앙로200번길 70,원동,127.432746795187,36.3274480230318
743,4879,2447,동구,나물촌 비빔밥,대전광역시 동구 중앙로204번길 24 ,중동,127.432305430857,36.3298265633085
744,4891,36364,동구,나순대국너갈비탕,대전광역시 동구 충정로 16,가양동,127.452742374455,36.3484818921368
745,4924,11583,동구,나이키중동점,대전광역시 동구 중앙로 193 ,중동,127.430556623563,36.3306745745171
746,4936,7318,동구,나인틴나인쥬얼리(99.jewley),대전광역시 동구 은어송로 72,가오동,127.457985837078,36.3069678174478
747,4939,6613,동구,나주수산,대전광역시 동구 역전시장길 51 ,정동,127.434641579447,36.3295398075456
748,4941,16672,동구,나진산업사,대전광역시 동구 우암로277번길 96 ,가양동,127.444208699225,36.3497069818319
749,4945,14974,동구,나풀나풀바이(by)진,대전광역시 동구 중앙로200번길 99,원동,127.433958423963,36.3267298982229
750,4957,15742,동구,낙원떡집,대전광역시 동구 대전로785번길 42 ,중동,127.431146057099,36.3291649619412
751,4961,13810,동구,낙원떡집방앗간,대전광역시 동구 계족로489번길 73,용전동,127.429073784009,36.3553072924848
752,4962,33269,동구,낙원목욕탕,대전광역시 동구 삼성동 317-5번지,삼성동,127.422783330862,36.3389668276876
753,4970,2256,동구,낚시마당,대전광역시 동구 산내로 1343 ,낭월동,127.466390873258,36.2831199225606
754,4992,15959,동구,남경반점,대전광역시 동구 대흥로 197-10 ,원동,127.433296208568,36.3266071272081
755,4995,1992,동구,남광사,대전광역시 동구 중앙로200번길 13 ,중동,127.431882545723,36.3302103710961
756,4996,3004,동구,남광상회,대전광역시 동구 대전로791번길 31 ,중동,127.431524996838,36.3295978713357
757,5002,4771,동구,남길사,대전광역시 동구 중앙로200번길 73,원동,127.433361517998,36.3277821149337
758,5011,37176,동구,남대전농원,대전광역시 동구 대전로 462 ,가오동,127.451613083828,36.3070038661599
759,5012,14662,동구,남대전모터스,대전광역시 동구 산내로1305번길 12 ,낭월동,127.467412270333,36.2801584347088
760,5014,36089,동구,남대전자동차공업사,대전광역시 동구 산서로1660번길 172-6,대별동,127.463000270161,36.2822231746607
761,5015,7354,동구,남대전커피숍,대전광역시 동구 산서로1660번길 142,대별동,127.463003153215,36.2834839174361
762,5019,26643,동구,남도식당,대전광역시 동구 중앙로203번길 7 ,중동,127.431409097905,36.3311204665507
763,5025,24885,동구,남매떡집,대전광역시 동구 용운로 101-1,용운동,127.453758305101,36.3278504299347
764,5026,19117,동구,남매떡집,대전광역시 동구 동부로 73,판암동,127.458472364496,36.3231066737681
765,5032,28624,동구,남부자동차공업(주),대전광역시 동구 옥천로 273,삼정동,127.469962877075,36.3199433481382
766,5040,5272,동구,남성 오토바이,대전광역시 동구 대흥로 205 ,원동,127.434397482724,36.3266768461589
767,5041,17858,동구,남성복,대전광역시 동구 중앙로200번길 40,원동,127.432006142463,36.3292367440967
768,5042,22129,동구,남성복한일의류,대전광역시 동구 대전로785번길 17-2 ,원동,127.43249713108,36.329407994319
769,5045,20491,동구,남성토탈패션,대전광역시 동구 중앙로194번길 29 ,중동,127.431507806679,36.3293283014199
770,5046,37069,동구,남성헤어컷,대전광역시 동구 용운로 156 ,용운동,127.459597590784,36.3279428389598
771,5050,13276,동구,남안경원,대전광역시 동구 정동 2-27,정동,0,0
772,5059,34460,동구,남원떡집,대전광역시 동구 새울로91번길 14-22 ,용운동,127.460964039291,36.3274193107879
773,5073,15639,동구,남정약국,대전광역시 동구 동대전로 27-1 ,신안동,36.3455163,127.4458824
774,5074,4388,동구,남진 농수산,대전광역시 동구 역전시장길 51 ,정동,127.434641579447,36.3295398075456
775,5076,31289,동구,남촌 뼈다귀해장국  쓰리고야식,대전광역시 동구 새울로109번길 18-4,용운동,127.461096885881,36.3283990971262
776,5078,39338,동구,남촌생막창,대전광역시 동구 태전로126번길2,삼성동,127.422561961041,36.3395979826816
777,5096,1162,동구,낭만순두부,대전광역시 동구 동대전로 188,자양동,127.448637727076,36.3383864746242
778,5097,37114,동구,낭만열차,대전광역시 동구 대전로791번길 50,중동,127.430506838139,36.3295205271986
779,5104,7906,동구,낭만커피,대전광역시 동구 동대전로 58,대동,127.441181219823,36.3286317936466
780,5107,27093,동구,낭만포차,대전광역시 동구 동대전로131번길 8-3,자양동,127.445232110273,36.3342791291951
781,5108,13535,동구,낭월우리약국,대전광역시 동구 곤룡로 6,낭월동,127.468613227655,36.2798968976516
782,5109,15838,동구,낭월집,대전광역시 동구 산내로1316번길 61 ,낭월동,127.47063500291,36.2821703007733
783,5110,21786,동구,낭월카스테이션,대전광역시 동구 석천로 18 ,낭월동,127.464578193005,36.2767276808699
784,5115,24030,동구,내가가고싶은현대카클리닉,대전광역시 동구 계족로 212 ,소제동,127.440577901575,36.3320316325903
785,5129,33686,동구,내꺼니꼬,대전광역시 동구 동서대로1692번길 24,성남동,127.437866975151,36.3482881501817
786,5163,8968,동구,너의바다,대전광역시 동구 대학로50번길 22-8,용운동,127.456760337331,36.3335212661174
787,5173,21855,동구,넘버원하나로축산,대전광역시 동구 백룡로5번길 139 ,자양동,127.450533384668,36.3420956051044
788,5178,14259,동구,네네치킨,대전광역시 동구 은어송로 116,가오동,127.462046839208,36.3102783506981
789,5192,23180,동구,네네치킨우송대점,대전광역시 동구 동대전로 213,자양동,127.448633607396,36.3406396961027
790,5208,4776,동구,네오상사,대전광역시 동구 중앙로200번길 25 ,중동,127.432174500218,36.3297137589406
791,5209,39396,동구,네오상사,대전광역시 동구 중앙로200번길 25,중동,127.432174500218,36.3297137589406
792,5212,26965,동구,네오피자 대전2호점,대전광역시 동구 충정로130번길 58,가양동,127.451653228975,36.3447429010843
793,5214,11761,동구,네이루,대전광역시 동구 용운로1번길 11,대동,127.443920488612,36.3295270627269
794,5217,14302,동구,네이처 컬렉션 대전가오점,대전광역시 동구 동구청로 101,가오동,127.456169939554,36.3070582092672
795,5221,37926,동구,네이처컬렉션,대전광역시 동구 동서대로 1679,용전동,127.436049103898,36.3493796298443
796,5222,39068,동구,네이처컬렉션,대전광역시 동구 용운로150 ,용운동,127.458916451897,36.3279821339905
797,5225,17864,동구,네이처컬렉션 대전대점,대전광역시 동구 용운로 150,용운동,127.458916451897,36.3279821339905
798,5231,9581,동구,네이처플러스,대전광역시 동구 우암로277번길 99,가양동,127.44389219387,36.3497638504525
799,5238,35462,동구,네일 드 블랑(Nail de balnc),대전광역시 동구 태전로104번길 53,삼성동,127.422875910329,36.339732318839
800,5245,10876,동구,네일.새김,대전광역시 동구 백룡로6번길 30,자양동,127.446948030402,36.3349996124071
801,5258,24782,동구,네일더무드(NAIL THE MOOD),대전광역시 동구 옥천로 183,판암동,127.460254904294,36.317924185452
802,5270,34971,동구,네일또,대전광역시 동구 동대전로 126-2,대동,127.445667519189,36.3334228318014
803,5287,36605,동구,네일브리에,대전광역시 동구 새울로109번길 38,용운동,127.459801488123,36.3285833312681
804,5296,30001,동구,네일에이블,대전광역시 동구 계족로505번길 22,용전동,127.431486875126,36.3569723504645
805,5308,10168,동구,네일지수,대전광역시 동구 동대전로 217,자양동,127.448578737912,36.341055523549
806,5317,1274,동구,네일투유,대전광역시 동구 홍도로9번길 20-10,홍도동,127.428912066506,36.3471724417605
807,5322,29542,동구,네일프리티2호점,대전광역시 동구 동서대로1695번길 30,용전동,127.437518299333,36.3512760051536
808,5324,22408,동구,네일하나,대전광역시 동구 대학로50번길 48,용운동,127.457076353641,36.3330884853281
809,5338,17455,동구,네파(주)광주첨단직영점,대전광역시 동구 한밭대로 1230 ,용전동,127.434127287687,36.3572608941245
810,5357,13570,동구,노닐약국,대전광역시 동구 동서대로1695번길 30 ,용전동,127.437518299333,36.3512760051536
811,5386,15037,동구,노루페인트상사,대전광역시 동구 대전로 837,정동,127.43096341102,36.3341406533495
812,5399,20350,동구,노벨장식,대전광역시 동구 판암동 341-1,판암동,127.460239864865,36.3167865973154
813,5404,11712,동구,노블레스,대전광역시 동구 동대전로 176,자양동,127.44807912403,36.3373555539135
814,5410,1524,동구,노블리스,대전광역시 동구 중동 77-12,중동,127.432045403558,36.3307399444855
815,5429,27226,동구,노아음악학원,대전광역시 동구 계족로 167,대동,127.44298987327,36.3287637048273
816,5511,32084,동구,노인일자리사업단 착한할매(청춘국수),대전광역시 동구 동대전로110번길 69 ,대동,127.448273298414,36.3309262932856
817,5512,2241,동구,노총이불집,대전광역시 동구 중앙로204번길 16-1,중동,127.432108815301,36.3301419650559
818,5513,8741,동구,노총축산물직판장,대전광역시 동구 역전시장길 35,정동,127.434320699218,36.330239836155
819,5524,30599,동구,녹십자 약국 ,대전광역시 동구 동대전로284번길 3 ,가양동,127.445460240977,36.3463517612908
820,5527,21616,동구,녹십초알로에 대전남부,대전광역시 동구 가양남로13번길 69,가양동,127.445083375645,36.3425725618212
821,5536,34945,동구,녹원청과,대전광역시 동구 흥룡로65번길 79,가양동,127.446426418453,36.3517616817168
822,5552,28166,동구,놀러와포차,대전광역시 동구 계족로 317-8,성남동,127.435217375549,36.3410718560567
823,5558,15590,동구,놀부부대찌개,대전광역시 동구 용전동 68-2,용전동,127.437589284544,36.3513791998754
824,5563,32019,동구,놀부숯불갈비,대전광역시 동구 송촌남로11번길 139 ,용전동,127.436061427114,36.3571224603609
825,5568,35410,동구,놀자멍 애견,대전광역시 동구 용운로 184,용운동,127.46250761929,36.3274356068492
826,5569,27177,동구,놀자인(in)별나라,대전광역시 동구 은어송로 56,가오동,127.455701281783,36.3058872924106
827,5570,37058,동구,놀작마이아트 나는걸작품 미술교습소,대전광역시 동구 흥룡로65번길 65,가양동,127.447142152326,36.3515395701096
828,5571,36964,동구,놀작마이아트가오창의팡팡키즈센터,대전광역시 동구 은어송로 75,가오동,127.457071442246,36.3073964930283
829,5585,23533,동구,농부의아들,대전광역시 동구 신기로101번길 30-18,가오동,127.456897355113,36.3109359963763
830,5598,36779,동구,농업회사법인 그린생명주식회사,대전광역시 동구 합내로 46 ,가양동,127.440504961121,36.3472051575234
831,5638,10371,동구,누나  돈  가스,대전광역시 동구 대학로 68 ,용운동,127.456783353498,36.3356702995753
832,5646,5278,동구,누리 개량한복,대전광역시 동구 원동 64,원동,0,0
833,5653,21263,동구,누리누리,대전광역시 동구 중앙로204번길 30 ,중동,127.432426881984,36.3296145277645
834,5667,31148,동구,누리약국,대전광역시 동구 은어송로 72,가오동,127.457985837078,36.3069678174478
835,5668,10994,동구,누리엘병원,대전광역시 동구 동서대로 1641,용전동,127.432704599188,36.3480916642919
836,5669,21505,동구,누리유통,대전광역시 동구 산내로1352번길 47-16 ,낭월동,127.469388102816,36.2839094361379
837,5674,27536,동구,누벨메종 (Nouvelle Maison),대전광역시 동구 중앙로204번길 68,원동,127.433316450631,36.3280705647082
838,5679,9706,동구,누비부비,대전광역시 동구 새울로 82-1 ,용운동,127.461856122114,36.3256839875433
839,5680,34844,동구,누수공사119,대전광역시 동구 우암로 308,가양동,127.449611849793,36.347057332109
840,5685,12200,동구,눈꽃굼벵이,대전광역시 동구 현암로61번길 24,삼성동,127.416234513846,36.3412422130755
841,5690,31034,동구,눈빛안경원 ,대전광역시 동구 동서대로 1629-6 ,홍도동,127.431414690464,36.3474441487076
842,5703,1266,동구,뉴 과일나라,대전광역시 동구 비래서로42번길 88 ,가양동,127.446942992688,36.3505122574903
843,5706,5428,동구,뉴 모텔,대전광역시 동구 동서대로1683번길 76-9 ,용전동,127.4361155449,36.352703454068
844,5710,11010,동구,뉴골드,대전광역시 동구 중앙로200번길 3 ,중동,127.431687348456,36.3306016460514
845,5714,28296,동구,뉴대전아쿠앰,대전광역시 동구 대전로 971 ,삼성동,127.422030435158,36.3432348400751
846,5727,25582,동구,뉴서울헤어샵,대전광역시 동구 신흥동 3-36번지,신흥동,127.44490757242,36.3228038607523
847,5732,22157,동구,뉴스타락앤펍,대전광역시 동구 동구청로 101,가오동,127.456169939554,36.3070582092672
848,5733,22103,동구,뉴스타볼링센터 (가오점),대전광역시 동구 동구청로 101,가오동,127.456169939554,36.3070582092672
849,5743,14815,동구,뉴-왕금,대전광역시 동구 중앙로 190,중동,127.430333853753,36.3300837545606
850,5744,1947,동구,뉴욕 핫도그 앤 커피,대전광역시 동구 은어송로 72,가오동,127.457985837078,36.3069678174478
851,5753,26969,동구,뉴우리학원,대전광역시 동구 홍도로 1,홍도동,127.430353361091,36.3466492652403
852,5756,13136,동구,뉴제이마트,대전광역시 동구 옥천로180번길 47-30,판암동,127.463209832297,36.3164304254181
853,5757,15404,동구,뉴중고휠타이어2,대전광역시 동구 계족로 112,대동,127.446145692979,36.3243430518262
854,5760,20379,동구,뉴타지마할 인도음식점,대전광역시 동구 동대전로 129,대동,127.445364772379,36.333771813981
855,5795,31151,동구,늘,대전광역시 동구 대학로50번길 22-15,용운동,127.456905506417,36.3331469940118
856,5797,625,동구,늘 사진관,대전광역시 동구 대전로448번길 85-25,가오동,127.45551578659,36.3093516800246
857,5809,22834,동구,늘봄화원,대전광역시 동구 용운로 117 ,용운동,127.455301991443,36.3281325753566
858,5810,11825,동구,늘사랑약국,대전광역시 동구 현암로 24 ,삼성동,127.420152179338,36.3427268875442
859,5819,30545,동구,늘예쁨,대전광역시 동구 용운로 182,용운동,127.462363561657,36.3274827549755
860,5826,9341,동구,늘편한안마원,대전광역시 동구 옥천로 183,판암동,127.460254904294,36.317924185452
861,5835,3709,동구,늘푸른설비철물,대전광역시 동구 계족로 507 ,용전동,127.432555066297,36.3570266139049
862,5841,8028,동구,늘푸른약국,대전광역시 동구 용운로 159-1,용운동,127.460199471683,36.3281185052563
863,5848,15290,동구,늘푸른태권도,대전광역시 동구 동대전로256번길 75,가양동,127.450573547056,36.3459928488921
864,5850,24174,동구,늘푸른한의원,대전광역시 동구 새울로 104,용운동,127.461897689077,36.3276132440896
865,5852,14114,동구,늘품축산도매센터,대전광역시 동구 비래서로42번길 11,가양동,127.448980377734,36.3535650011759
866,5869,39278,동구,니은리을 도예작업실,대전광역시 동구 계족로409번길25,홍도동,127.430402394797,36.3482111832008
867,5874,24124,동구,니콘대전센타,대전광역시 동구 동서대로 1682,성남동,127.436749485302,36.3487808558494
868,5885,1224,동구,다 맛있는 건어물,대전광역시 동구 계족로 491,용전동,127.432528189628,36.3556726997876
869,5889,28804,동구,다구제,대전광역시 동구 중앙로 195,중동,127.430823019042,36.3307529180819
870,5894,19481,동구,다나안마원,대전광역시 동구 대전로 758,원동,127.435068449757,36.3275921640364
871,5898,12444,동구,다농식품,대전광역시 동구 용운로205번길 95-8,용운동,127.465496766459,36.3305186385236
872,5900,12114,동구,다니그라피,대전광역시 동구 대동로 44 ,대동,127.449038808622,36.3315518995112
873,5904,2328,동구,다니엘 전자담배,대전광역시 동구 동서대로1678번길 5 ,성남동,36.3470427,127.4365413
874,5908,9918,동구,다니엘학원,대전광역시 동구 비래서로62번길 80,가양동,127.449283045915,36.3509623592734
875,5912,6441,동구,다다 유니폼,대전광역시 동구 중앙로194번길 62 ,원동,127.432126091619,36.3278854469025
876,5915,27182,동구,다다종합페인트,대전광역시 동구 충정로130번길 77-1 ,가양동,127.452376882417,36.3454221718422
877,5918,30652,동구,다다헤어 ,대전광역시 동구 동산초교로 41,홍도동,127.425129013224,36.3473659245142
878,5932,10453,동구,다락,대전광역시 동구 계족로 476,용전동,127.432892414768,36.3541476783048
879,5937,20163,동구,다람기업,대전광역시 동구 계족로 484 ,용전동,127.433123608653,36.3549156308332
880,5940,32862,동구,다래미용실,대전광역시 동구 가양로 92,가양동,127.442557122424,36.3445035168713
881,5954,39333,동구,다르게 담다,대전광역시 동구 대전로700,인동,127.437619411732,36.3228341001593
882,5956,2226,동구,다리 신경외과,대전광역시 동구 곤룡로 6,낭월동,127.468613227655,36.2798968976516
883,5959,24355,동구,다린건강원,대전광역시 동구 백룡로 129,용운동,127.454608489982,36.3293227843726
884,5963,15630,동구,다명상회,대전광역시 동구 충무로 185 ,인동,127.436652059271,36.3217881267744
885,5999,36976,동구,다복이네바다,대전광역시 동구 가양로 95-1,가양동,127.442078009136,36.3449364117198
886,6002,8965,동구,다봄한의원,대전광역시 동구 동대전로46번길 11,신흥동,127.440299152951,36.3279195122874
887,6013,32118,동구,다비치안경원,대전광역시 동구 동구청로 101,가오동,127.456169939554,36.3070582092672
888,6022,18325,동구,다사랑,대전광역시 동구 옥천로176번길 15-1 ,판암동,127.45985703113,36.3164274195107
889,6024,22450,동구,다사랑동물병원,대전광역시 동구 비래서로 54 ,가양동,127.450249798288,36.35401693869
890,6026,20898,동구,다사랑약국,대전광역시 동구 동대전로 270,가양동,127.446374739035,36.3452260274875
891,6032,9123,동구,다사랑치킨피자,대전광역시 동구 대전로448번길 85-3 ,가오동,127.455709720287,36.3083517140859
892,6038,4445,동구,다사랑태권도,대전광역시 동구 대전로542번길 80-77,천동,127.447387680931,36.3162429546285
893,6043,14587,동구,다산학원,대전광역시 동구 계족로368번길 11,성남동,127.434935283112,36.346270585113
894,6055,23867,동구,다솔발레무용학원,대전광역시 동구 대전로542번길 80-87,천동,127.447403400902,36.3164606203479
895,6073,29760,동구,다예감공방,대전광역시 동구 중앙로200번길 99,원동,127.433958423963,36.3267298982229
896,6074,4971,동구,다온,대전광역시 동구 중앙로200번길 70,원동,127.432746795187,36.3274480230318
897,6082,39645,동구,다온낙곱새,대전광역시 동구 동산초교로22번길 42,홍도동,127.429024502405,36.3472193497763
898,6086,33065,동구,다온스킨케어,대전광역시 동구 대전로 646,효동,127.44176790469,36.3188802445439
899,6118,21568,동구,다와모터스,대전광역시 동구 옛신탄진로67번길 26-8 ,홍도동,127.421524365431,36.3459611469623
900,6133,31664,동구,다원베이비,대전광역시 동구 옥천로 211,판암동,127.46350827629,36.3188400972706
901,6148,36702,동구,다육이랑 꽃이랑,대전광역시 동구 대전로906번길 57-21 ,삼성동,127.428104347029,36.3401776289232
902,6150,23694,동구,다음꼬마김밥,대전광역시 동구 동구청로 67,가오동,127.457215836363,36.3056962273781
903,6155,32817,동구,다이소 (가양 비래래점),대전광역시 동구 우암로 324 ,가양동,127.45101067352,36.3478866372309
904,6158,21515,동구,다이소 대전산내점,대전광역시 동구 산내로 1321,낭월동,127.467322530917,36.2813298719291
905,6163,34372,동구,다이소 대전판암점,대전광역시 동구 옥천로 122 ,판암동,127.453922953303,36.3169692684082
906,6172,11899,동구,다이아몬드횟집,대전광역시 동구 계족로 487,용전동,127.432446332701,36.355275308662
907,6180,2249,동구,다인,대전광역시 동구 대전로 880 ,삼성동,127.430045305699,36.3376870219112
908,6183,18462,동구,다인삼겹살,대전광역시 동구 대전로542번길 80-99,천동,127.447676353864,36.3164839302487
909,6185,35063,동구,다인수학,대전광역시 동구 은어송로 117,가오동,127.461544099826,36.310710875626
910,6187,20272,동구,다인유통,대전광역시 동구 홍도로46번길 74 ,용전동,127.429326537275,36.3530485863775
911,6190,32276,동구,다인치과의원,대전광역시 동구 우암로 163,성남동,127.435530855871,36.3407169129082
912,6200,26974,동구,다정부속,대전광역시 동구 현암로 13-1 ,삼성동,127.421428896734,36.3423223606273
913,6204,8593,동구,다정약국,대전광역시 동구 우암로 229 ,가양동,127.441804472638,36.3438016739802
914,6208,29447,동구,다정원순대족발,대전광역시 동구 동산초교로 21-2 ,홍도동,127.426794435591,36.3460811320784
915,6216,24861,동구,다하나,대전광역시 동구 가양로 54 ,가양동,127.442393554751,36.3411484208901
916,6219,37708,동구,다함께 뒷고기,대전광역시 동구 옻밭5길 82,판암동,127.450485509738,36.3210321626098
917,6220,30920,동구,다해건설사,대전광역시 동구 대전천동로 504,원동,127.432837297107,36.3264335110421
918,6241,31698,동구,닥터과학로봇코딩학원,대전광역시 동구 동구청로 89-2,가오동,127.456979499438,36.3062750570675
919,6244,30590,동구,닥터리동물병원,대전광역시 동구 동구청로 89-2,가오동,127.456979499438,36.3062750570675
920,6247,23888,동구,닥터수학보스톤영어학원,대전광역시 동구 은어송로 56,가오동,127.455701281783,36.3058872924106
921,6251,19142,동구,닥터진  재활의학과  의원,대전광역시 동구 동구청로 101,가오동,127.456169939554,36.3070582092672
922,6262,25236,동구,단골식당,대전광역시 동구 판암로 37 ,판암동,127.463982712892,36.3180594596436
923,6263,39253,동구,단골언니,대전광역시 동구 중앙로지하 200,중동,127.431162001818,36.330664101385
924,6265,17355,동구,단국대  나래태권도,대전광역시 동구 용운로 69,용운동,127.45028291515,36.326989522593
925,6267,1602,동구,단국대 신화 태권도장,대전광역시 동구 동구청로 10,대성동,127.459158440358,36.2997808305088
926,6276,34013,동구,단발머리우리네,대전광역시 동구 중동 317 지하상가나-22,중동,127.430517139303,36.3304212158619
927,6280,34152,동구,단비한의원,대전광역시 동구 대전로542번길 80-77,천동,127.447387680931,36.3162429546285
928,6281,27770,동구,단비협동조합,대전광역시 동구 대동초등4길 18 ,대동,127.446340705278,36.3256922862168
929,6285,3133,동구,단양기름집,대전광역시 동구 계족로483번길 54,용전동,127.429541374501,36.3551655702855
930,6289,23465,동구,단웅 태권도장,대전광역시 동구 신기로 85,가오동,127.455711313229,36.3099457126503
931,6294,39651,동구,단지주막,대전광역시 동구 한남로4,홍도동,127.427667803773,36.3515223600404
932,6297,2347,동구,달 만두,대전광역시 동구 옻밭3길 35 ,판암동,127.450321252609,36.3206451853011
933,6322,37756,동구,달달놀이터(대전성남점),대전광역시 동구 성남로 15 ,성남동,127.433915250632,36.3430441250739
934,6329,8498,동구,달달콩,대전광역시 동구 태전로 132-11,삼성동,127.422321945608,36.3404899130527
935,6330,39499,동구,달달콩,대전광역시 동구 태전로 132-11,삼성동,127.422321945608,36.3404899130527
936,6350,2221,동구,달리,대전광역시 동구 산내로 1340 ,낭월동,127.466908069719,36.2829434354484
937,6372,29927,동구,달빛네일,대전광역시 동구 백룡로 36-1,자양동,127.450439512541,36.3346920004902
938,6373,39575,동구,달빛노래연습장,대전광역시 동구 우암로 331,가양동,127.450960444848,36.3487387956107
939,6389,21081,동구,달시아이스크림 세계과자 용운점,대전광역시 동구 대학로 62-17,용운동,127.456845888609,36.3357932511083
940,6390,39070,동구,달시아이스크림 세계과자 천동점,대전광역시 동구 대전로542번길80-99,천동,127.447676353864,36.3164839302487
941,6393,36220,동구,달시아이스크림세계과자우송대점,대전광역시 동구 백룡로57번길 61,자양동,127.451958739916,36.3360017098816
942,6405,26267,동구,달커피공작소,대전광역시 동구 계족로437번길 38-10,용전동,127.430186146406,36.3513664292036
943,6409,35805,동구,달콤별네일,대전광역시 동구 은어송로51번길 57,가오동,127.454124972968,36.307949059872
944,6410,18048,동구,달콤상회,대전광역시 동구 비래서로42번안길 48,가양동,127.451372931013,36.3530562874766
945,6416,37919,동구,달콤아이스크림,대전광역시 동구 신기로 100,가오동,127.457387187081,36.3103859365336
946,6424,14942,동구,달콤한커피,대전광역시 동구 계족로 63,인동,127.443017620855,36.3202865029075
947,6427,23377,동구,달콩커피,대전광역시 동구 대전로542번길 80-57,천동,127.446827381969,36.316171514169
948,6428,35040,동구,달토끼의떡볶이흡입구역,대전광역시 동구 동대전로131번길 8-38,자양동,127.446199601736,36.3356340424796
949,6432,10529,동구,달토끼의떡볶이흡입구역(신흥점),대전광역시 동구 계족로 73,신흥동,127.443878177426,36.32114411495
950,6438,20907,동구,닭갈비 볶는 남자,대전광역시 동구 산내로 1336,낭월동,127.467139483322,36.2825895386538
951,6444,39753,동구,닭발상점,대전광역시 동구 동대전로121,대동,127.444985447621,36.3330923889326
952,6456,11196,동구,닭한마리,대전광역시 동구 대전로472번길 5,가오동,127.451236856524,36.3080273138596
953,6461,39891,동구,담꾹 대전대동점,대전광역시 동구 동대전로46번길29,대동,127.440631308968,36.3272157311631
954,6465,39180,동구,담꾹 판암점,대전광역시 동구 옥천로183,판암동,127.460254904294,36.317924185452
955,6467,441,동구,담다키친,대전광역시 동구 동대전로263번길 44,가양동,127.444112750616,36.3437381464442
956,6471,19872,동구,담뱃잎 풍경,대전광역시 동구 대전로 437,가오동,127.452688388908,36.3052069935391
957,6497,33652,동구,당신이웃는치과,대전광역시 동구 산내로 1354 ,낭월동,127.466244996513,36.2841009774194
958,6499,1182,동구,대가,대전광역시 동구 동대전로256번길 5 ,가양동,127.447124540057,36.3443678305103
959,6500,1289,동구,대가 아구찜,대전광역시 동구 흥룡로 51,가양동,127.449214545415,36.3498786863963
960,6512,13442,동구,대견  서점,대전광역시 동구 우암로 59-2 ,삼성동,127.425335930547,36.336436191486
961,6523,27418,동구,대경진열장.주방가구,대전광역시 동구 대전천동로 146 ,가오동,127.455446301356,36.3015578267535
962,6537,15308,동구,대광상회,대전광역시 동구 대전로785번길 38 ,중동,127.431387476336,36.3291783294348
963,6542,20663,동구,대광전기,대전광역시 동구 홍도동 23-14번지 홍도빌리지 상가 3동 101호,홍도동,127.426545771763,36.344912295848
964,6543,6949,동구,대광카센타,대전광역시 동구 계족로 512 ,용전동,127.433210129102,36.3575614294456
965,6550,1176,동구,대구반야월막창,대전광역시 동구 대전로 436-13,가오동,127.453551468541,36.305242022512
966,6553,39012,동구,대구정육점,대전광역시 동구 동대전로277,가양동,127.445152590245,36.345632780035
967,6554,28879,동구,대구찜탕나라 ,대전광역시 동구 계족로 448,용전동,127.432684247034,36.3516814716502
968,6555,27639,동구,대구포장마차,대전광역시 동구 동서대로1683번길 31,용전동,127.435820236648,36.3503304815327
969,6570,37558,동구,대단한갈비 대전용운점,대전광역시 동구 용운로 188-1,용운동,127.463098133611,36.3272709285385
970,6578,17701,동구,대덕구시니어클럽몰랐지카페,대전광역시 동구 계족로 176,대동,127.442884593398,36.3295450541282
971,6581,3001,동구,대덕도매마트,대전광역시 동구 대전로785번길 30-1 ,중동,127.431762061015,36.329407047223
972,6591,39509,동구,대덕상회,대전광역시 동구 대전로813번길 54,중동,127.429264279736,36.3312936449561
973,6594,33005,동구,대덕스포츠,대전광역시 동구 한밭대로 1194-1,용전동,127.431197041067,36.3588014244233
974,6599,645,동구,대덕약국,대전광역시 동구 동서대로 1676,성남동,127.436073432929,36.3485483889273
975,6609,4772,동구,대도상회,대전광역시 동구 원동 64-1,원동,127.432054950665,36.3292012415584
976,6610,5833,동구,대도음반,대전광역시 동구 대전로797번길 39 ,중동,127.43089968663,36.329910943051
977,6611,14404,동구,대도전기조명,대전광역시 동구 중앙로200번길 12 ,중동,127.431598924567,36.3301790433719
978,6613,4457,동구,대도진열장,대전광역시 동구 원동 61-1제1호,원동,127.431855939611,36.3279119265928
979,6619,5672,동구,대동 독서실,대전광역시 동구 계족로 167,대동,127.44298987327,36.3287637048273
980,6621,4000,동구,대동기계상사,대전광역시 동구 대전로 764-1 ,원동,127.434614240829,36.3281266821595
981,6622,14252,동구,대동상사,대전광역시 동구 인동 92,인동,0,0
982,6623,13552,동구,대동상사,대전광역시 동구 충무로 185 ,인동,127.436652059271,36.3217881267744
983,6624,18559,동구,대동상회,대전광역시 동구 용운로 27 ,대동,127.446159376244,36.3282476176036
984,6625,26048,동구,대동성모마취통증의학과의원,대전광역시 동구 동대전로 81 ,대동,127.443046631012,36.3300152279043
985,6626,8711,동구,대동슈퍼,대전광역시 동구 용운로 17 ,대동,127.445222066847,36.3285991469003
986,6627,27163,동구,대동식당,대전광역시 동구 계족로 159 ,대동,36.3552005,127.4315189
987,6629,17874,동구,대동양품,대전광역시 동구 원동 64,원동,0,0
988,6638,26041,동구,대동치과의원,대전광역시 동구 계족로 185 ,대동,127.44192882086,36.3300444188857
989,6640,11215,동구,대동한의원,대전광역시 동구 동대전로 81,대동,127.443046631012,36.3300152279043
990,6641,9071,동구,대동해법수학교습소,대전광역시 동구 계족로 167,대동,127.44298987327,36.3287637048273
991,6652,27659,동구,대림상회,대전광역시 동구 대전천동로 462,인동,127.435548098628,36.3232249362167
992,6657,31487,동구,대림전자 ,대전광역시 동구 대전로 830-1 ,정동,127.431786562277,36.3335243421304
993,6669,33675,동구,대명물류,대전광역시 동구 계족로489번길 8 ,용전동,127.432324781783,36.3555771005787
994,6671,3993,동구,대명상사,대전광역시 동구 계족로512번길 91 ,용전동,127.436600046926,36.3548371934101
995,6673,23892,동구,대명슈퍼,대전광역시 동구 선화로 210,정동,127.428761373651,36.3344159521909
996,6678,16553,동구,대명종합가스,대전광역시 동구 이사로 128 ,이사동,127.445850186535,36.2856065007109
997,6680,33438,동구,대명축산,대전광역시 동구 동산초교로22번길 46 ,홍도동,127.429211068079,36.3472955499556
998,6686,40091,동구,대목청과,대전광역시 동구 계족로140번길33,대동,127.445677867119,36.3271047400586
999,6689,23766,동구,대미축산,대전광역시 동구 대전로785번길 52 ,중동,127.430724902853,36.3289530818002
1000,6690,18331,동구,대미축산,대전광역시 동구 산내로1305번길 31 ,낭월동,127.466331106787,36.2796780897786
1001,6692,17369,동구,대박,대전광역시 동구 중동 317 역전지하도상가내가-20호,중동,127.430517139303,36.3304212158619
1002,6696,14096,동구,대박 에어컨,대전광역시 동구 계족로 474,용전동,127.432891500237,36.3539020219519
1003,6697,14083,동구,대박가구가전,대전광역시 동구 계족로 454-1 ,용전동,127.432753894917,36.3522888803698
1004,6700,37042,동구,대박구이,대전광역시 동구 충정로 128 ,가양동,127.449916417909,36.3434564488382
1005,6701,34442,동구,대박구이구이,대전광역시 동구 동서대로1678번길 14 ,성남동,127.43642230315,36.3481825005709
1006,6705,14930,동구,대박노래연습장,대전광역시 동구 우암로 323-1,가양동,127.450564984495,36.3480643175813
1007,6721,35248,동구,대박식당,대전광역시 동구 홍도로9번길 20-10 ,홍도동,127.428912066506,36.3471724417605
1008,6724,15426,동구,대박유통,대전광역시 동구 홍도로9번길 20-9,홍도동,127.428713727216,36.34704149198
1009,6725,30878,동구,대박유통광고 ,대전광역시 동구 홍도로9번길 20-9,홍도동,127.428713727216,36.34704149198
1010,6726,22955,동구,대박육회,대전광역시 동구 대동로 7,자양동,127.446626469209,36.3336527466458
1011,6732,8245,동구,대박정육축산,대전광역시 동구 옥천로176번길 6 ,판암동,127.459613539907,36.3167190757464
1012,6735,14090,동구,대박중고,대전광역시 동구 계족로 280 ,가양동,127.438399988474,36.3377882384895
1013,6737,11848,동구,대박창꼬,대전광역시 동구 대전로 794,중동,127.433255936875,36.3304774656687
1014,6741,8113,동구,대박포차,대전광역시 동구 동대전로 138,자양동,127.446141024224,36.3341903083812
1015,6742,3669,동구,대박포차,대전광역시 동구 한남로 12,홍도동,127.426891013428,36.3513658101946
1016,6743,3668,동구,대박포차2,대전광역시 동구 한남로 12,홍도동,127.426891013428,36.3513658101946
1017,6745,38201,동구,대보약방앗간,대전광역시 동구 대전로813번길 13 ,중동,127.431368488029,36.3317140375917
1018,6753,24900,동구,대복식당,대전광역시 동구 계족로 65,인동,127.44330348261,36.3217415652928
1019,6756,35292,동구,대복칼국수,대전광역시 동구 산내로1257번길 83,낭월동,127.465608866497,36.2767548534729
1020,6769,14488,동구,대선물산,대전광역시 동구 옥천로 206,판암동,127.463074045414,36.3182677305698
1021,6781,3467,동구,대성공구,대전광역시 동구 동서대로 1601,홍도동,127.429019683094,36.3453458264212
1022,6788,20732,동구,대성광고,대전광역시 동구 동서대로 1590,성남동,127.428569777651,36.3441914144915
1023,6792,9378,동구,대성당약국,대전광역시 동구 성남동 47-2,성남동,127.436041750336,36.3411876258483
1024,6793,2673,동구,대성미용갤러리,대전광역시 동구 태전로 2 ,중동,127.431368077681,36.3309930981788
1025,6795,16756,동구,대성상사,대전광역시 동구 우암로 125-15,삼성동,127.432422846874,36.3393838266497
1026,6798,39762,동구,대성셀프주유소,대전광역시 동구 대전로292 ,대성동,127.461796097387,36.2942465276291
1027,6805,19489,동구,대성안감,대전광역시 동구 중앙로200번길 85 ,원동,127.433634919595,36.3272971013934
1028,6808,39765,동구,대성열쇠,대전광역시 동구 용운로80 ,용운동,127.45042408851,36.3266723173932
1029,6816,7545,동구,대성종합상사,대전광역시 동구 동산초교로22번길 45 ,홍도동,127.429039114596,36.3475476850448
1030,6818,18350,동구,대성집,대전광역시 동구 용운로 16,대동,127.444734576433,36.3285378794657
1031,6819,24862,동구,대성철물,대전광역시 동구 가양로 54-1 ,가양동,127.442394624139,36.3412587206584
1032,6824,2220,동구,대성카 용품점,대전광역시 동구 계족로 287 ,삼성동,36.3552005,127.4315189
1033,6831,4719,동구,대성파크,대전광역시 동구 비래서로42번안길 49-27 ,가양동,127.452112995574,36.3541522886924
1034,6835,25565,동구,대성휠체어의료기총판,대전광역시 동구 대전로 707 ,인동,127.436564838084,36.3232613294703
1035,6844,37190,동구,대승상사,대전광역시 동구 대전로340번길 20,대성동,127.461284171778,36.2986986218884
1036,6850,4767,동구,대신공구,대전광역시 동구 대전천동로 504,원동,127.432837297107,36.3264335110421
1037,6858,4768,동구,대신철망,대전광역시 동구 대전천동로 504 ,원동,127.432837297107,36.3264335110421
1038,6866,6551,동구,대양가스충전소,대전광역시 동구 동대전로 312 ,가양동,127.444112656283,36.3485079676846
1039,6868,32361,동구,대양식당,대전광역시 동구 비래서로76번길 17 ,가양동,127.452521224495,36.3535603856414
1040,6871,4945,동구,대엔 실업,대전광역시 동구 비래서로42번길 27,가양동,127.448610542898,36.352892223301
1041,6878,4642,동구,대영 종합상사,대전광역시 동구 대흥로 209-1 ,원동,127.434639495836,36.3267984362738
1042,6879,3185,동구,대영로프,대전광역시 동구 대흥로 204 ,인동,127.434281996816,36.3260554538495
1043,6881,32203,동구,대영스크린골프,대전광역시 동구 산내로 1329,낭월동,127.466985914661,36.2819787764778
1044,6884,34682,동구,대영전자,대전광역시 동구 대전로 823-2 ,정동,127.431603290137,36.3328887739683
1045,6885,27564,동구,대영주단,대전광역시 동구 중교로 119,원동,127.432202050797,36.3285919650311
1046,6886,23493,동구,대영지업사,대전광역시 동구 동대전로 74-3 ,대동,36.3455163,127.4458824
1047,6887,4008,동구,대영철물상회,대전광역시 동구 계족로 285 ,삼성동,127.437581707046,36.3380192345979
1048,6888,23187,동구,대영카,대전광역시 동구 대전천동로 482 ,인동,127.434223911854,36.3246993936228
1049,6899,4101,동구,대왕상회,대전광역시 동구 원동 65,원동,0,0
1050,6911,18498,동구,대우땅콩,대전광역시 동구 원동 64-30번지,원동,127.431684917324,36.3290707364757
1051,6917,31584,동구,대우안경원,대전광역시 동구 대전로 669-2 ,인동,127.438343774917,36.3202381279443
1052,6925,5832,동구,대우주단,대전광역시 동구 원동 40,원동,0,0
1053,6932,24864,동구,대운식당,대전광역시 동구 대전로906번길 94 ,삼성동,127.426619881212,36.3408131289541
1054,6936,7885,동구,대웅전기조명,대전광역시 동구 가양1동 538-17,가양동,36.3433022,127.44323045874127
1055,6938,6032,동구,대원 누비,대전광역시 동구 중앙로200번길 99 ,원동,127.433958423963,36.3267298982229
1056,6944,36756,동구,대원보일러,대전광역시 동구 대전로 730-2 ,원동,127.436169112521,36.3253712579637
1057,6950,25497,동구,대원식당,대전광역시 동구 대전로839번길 10,정동,127.430635120279,36.3341512089023
1058,6964,2333,동구,대일 공예사,대전광역시 동구 대전천동로 544,중동,127.430423375754,36.3293708720315
1059,6971,2706,동구,대일연사,대전광역시 동구 중앙로200번길 29 ,중동,127.432217413433,36.329518318851
1060,6985,15373,동구,대전  안전공사,대전광역시 동구 대전로 755-2 ,원동,127.43457472549,36.3273483895378
1061,6987,20176,동구,대전  퀼트,대전광역시 동구 중앙로200번길 85 ,원동,127.433634919595,36.3272971013934
1062,6989,36543,동구,대전 교육,대전광역시 동구 동대전로284번길 117,가양동,127.450326640584,36.349562875093
1063,7003,4108,동구,대전 붙임머리 모모브릿지,대전광역시 동구 동서대로1678번길 25-28,성남동,127.437417430637,36.3475433546203
1064,7004,2021,동구,대전 뻥 과자,대전광역시 동구 대전로542번길 78,천동,127.446044443222,36.3154865690411
1065,7009,2223,동구,대전 소머리국밥,대전광역시 동구 대전로 100,낭월동,127.464462350961,36.2770128145609
1066,7012,2006,동구,대전 순대,대전광역시 동구 원동 64-28,원동,127.431650011,36.329102674071
1067,7018,12705,동구,대전 에어컨 청소 새싹 홈케어,대전광역시 동구 산내로1257번길 40,낭월동,127.467464313646,36.2782466427421
1068,7022,33073,동구,대전 외식창업 사관학교 푸드코트,대전광역시 동구 계족로 151,대동,127.44352239554,36.3279276013318
1069,7034,4096,동구,대전 청과,대전광역시 동구 대전로 776-1,원동,127.434092655256,36.3291448342634
1070,7041,709,동구,대전 한우명가,대전광역시 동구 비래서로 74,가양동,127.452548830589,36.3541530720108
1071,7057,19623,동구,대전감자탕,대전광역시 동구 옥천로 187 ,판암동,127.460803903276,36.3180581481156
1072,7062,3898,동구,대전건축자재,대전광역시 동구 계족로470번길 6,용전동,127.43397917638,36.3534598363198
1073,7074,13838,동구,대전과학교재사,대전광역시 동구 태전로 70-24,삼성동,127.428080400942,36.3363716913861
1074,7081,7196,동구,대전구제아울렛,대전광역시 동구 중앙로 190,중동,127.430333853753,36.3300837545606
1075,7086,17558,동구,대전그릇도매상가,대전광역시 동구 원동 64,원동,0,0
1076,7087,646,동구,대전꽃배달 아로마플라워꽃집,대전광역시 동구 동서대로 1673-1 ,용전동,127.435591502225,36.3490663387086
1077,7088,16816,동구,대전꽃백화점,대전광역시 동구 동구청로 65-102 ,가오동,127.455914139336,36.3030330769926
1078,7100,15898,동구,대전대마트,대전광역시 동구 대학로 62 ,용운동,127.459001869396,36.336696167799
1079,7102,36676,동구,대전대학교구내안경원,대전광역시 동구 대학로 62,용운동,127.459001869396,36.336696167799
1080,7106,38844,동구,대전데이터복구외장하드복구스마트USB센터ADS,대전광역시 동구 흥룡로 26,가양동,127.446774933584,36.3483954902497
1081,7111,37837,동구,대전동구지역자활센터(차려드림),대전광역시 동구 계족로 184-88,대동,127.44486000945,36.3334796403489
1082,7112,23800,동구,대전동구청직장상조회,대전광역시 동구 동구청로 147 ,가오동,127.45491664858,36.3120364990332
1083,7115,12563,동구,대전동산의원,대전광역시 동구 동대전로 81,대동,127.443046631012,36.3300152279043
1084,7121,25524,동구,대전뚝배기,대전광역시 동구 동부로 56-7 ,판암동,127.46081779027,36.3210793799278
1085,7129,11417,동구,대전목공소,대전광역시 동구 계족로 388-1,성남동,127.432857547012,36.3465008993158
1086,7130,27150,동구,대전목재,대전광역시 동구 옛신탄진로 85 ,홍도동,127.42141163501,36.3479463805543
1087,7134,38412,동구,대전밀면,대전광역시 동구 옥천로176번길 8,판암동,127.459258039387,36.3165389449661
1088,7145,33525,동구,대전백반,대전광역시 동구 가양로 136 ,가양동,127.441411464132,36.3481812977641
1089,7150,14996,동구,대전복사,대전광역시 동구 충정로18번길 3,가양동,127.453349516287,36.3484257903063
1090,7152,36573,동구,대전복싱클럽,대전광역시 동구 용운로 67,용운동,127.450026409653,36.3269084816104
1091,7161,31715,동구,대전비데할인총판 ,대전광역시 동구 동서대로1748번길 75,가양동,127.446662827358,36.3504562608172
1092,7167,19904,동구,대전삼화페인트,대전광역시 동구 충무로 194 ,인동,127.437447092053,36.3213923065524
1093,7169,1262,동구,대전상사,대전광역시 동구 동대전로 140 ,자양동,127.446269316299,36.3344019660408
1094,7170,9471,동구,대전상포상회,대전광역시 동구 중교로 119,원동,127.432202050797,36.3285919650311
1095,7171,23776,동구,대전상회,대전광역시 동구 역전시장길 72 ,정동,127.434209377887,36.3296673628974
1096,7176,36085,동구,대전선불폰,대전광역시 동구 동서대로1683번길 19,용전동,127.435958777349,36.3500426821817
1097,7190,25933,동구,대전셀프(self)주유소,대전광역시 동구 계족로 436 ,용전동,127.432696497122,36.3506338135708
1098,7192,38870,동구,대전수산,대전광역시 동구 충정로136,가양동,127.448909230153,36.343869459442
1099,7194,16985,동구,대전수족관,대전광역시 동구 대전로 836 ,정동,127.431625760556,36.334054724176
1100,7198,11590,동구,대전스마트폰,대전광역시 동구 백룡로27번길 18 ,자양동,127.450542094746,36.3359879538072
1101,7202,28299,동구,대전승복사,대전광역시 동구 중교로 130-8 ,원동,127.433532513827,36.3284328652271
1102,7204,33805,동구,대전식당,대전광역시 동구 동산초교로22번길 57 ,홍도동,127.42968353255,36.3476846911161
1103,7207,29512,동구,대전신발백화점 ,대전광역시 동구 중앙로204번길 16 ,중동,127.43204438464,36.3301923033758
1104,7209,40168,동구,대전실버빌,대전광역시 동구 용운로147번길9-7 ,용운동,127.458295717164,36.3284088792904
1105,7210,37316,동구,대전싱크대막힘변기하수구막힘,대전광역시 동구 은어송로51번길 38-9,가오동,127.454202845717,36.3075918972248
1106,7219,32545,동구,대전알롱제무용학원,대전광역시 동구 은어송로 75,가오동,127.457071442246,36.3073964930283
1107,7222,35605,동구,대전애견미용호텔 사랑해 줄 개,대전광역시 동구 동산초교로 15,홍도동,127.427206014407,36.3457690267313
1108,7224,654,동구,대전야채,대전광역시 동구 동대전로284번길 9 ,가양동,127.445768790086,36.3466215034247
1109,7225,18225,동구,대전야채,대전광역시 동구 비래서로42번길 116,가양동,127.44627268423,36.349381177482
1110,7254,26756,동구,대전의료기,대전광역시 동구 대전로 780-2 ,원동,127.433901517304,36.3294622917795
1111,7259,19925,동구,대전인재사,대전광역시 동구 선화로 212 ,정동,127.428903134285,36.3345329568618
1112,7263,31695,동구,대전자동차유리,대전광역시 동구 동서대로 1521 ,삼성동,127.42162586676,36.3414805092395
1113,7264,25859,동구,대전자동차유리 복원,대전광역시 동구 가양남로33번길 52-1 ,가양동,127.446437818026,36.3406058340739
1114,7266,38128,동구,대전자양전자담배마켓,대전광역시 동구 동대전로 157,자양동,127.446770724991,36.3360162599592
1115,7272,33912,동구,대전전자담배 스카이베이프 복합터미널점,대전광역시 동구 동서대로1705번길 5,용전동,127.4386414956,36.3501467729784
1116,7277,10016,동구,대전전자통신공과학원,대전광역시 동구 태전로 3 ,중동,127.430926703682,36.3309743237628
1117,7278,25824,동구,대전정도P.S,대전광역시 동구 옛신탄진로 7 ,삼성동,127.425417830754,36.341501405691
1118,7282,708,동구,대전정육점,대전광역시 동구 비래서로 74,가양동,127.452548830589,36.3541530720108
1119,7289,28633,동구,대전종로약국,대전광역시 동구 동서대로 1629-6 ,홍도동,127.431414690464,36.3474441487076
1120,7295,38474,동구,대전중고큰시장,대전광역시 동구 용전동 128-8,용전동,127.432914112709,36.3528551377605
1121,7296,31192,동구,대전중고폰,대전광역시 동구 동서대로 1671,용전동,127.435385195527,36.3489678713747
1122,7301,20382,동구,대전중앙유통,대전광역시 동구 중교로 112-1 ,원동,127.431613752543,36.3279201910425
1123,7306,6559,동구,대전짬뽕,대전광역시 동구 세천공원로 42,세천동,127.481487294137,36.3304997187536
1124,7341,38779,동구,대전체육사,대전광역시 동구 한밭대로 1225,용전동,127.434190604687,36.3581095681411
1125,7345,34895,동구,대전축산업협동조합자양동지점하나,대전광역시 동구 백룡로57번길 167 ,자양동,127.449210153471,36.3402508365543
1126,7347,26121,동구,대전출장세차오토필링 2호점,대전광역시 동구 우암로 133-1,삼성동,127.432346273497,36.3410474920451
1127,7348,20771,동구,대전충남출장실내크리닝에바크리닝전문카롱코리아,대전광역시 동구 대학로50번길 53,용운동,127.457069440528,36.3320194478701
1128,7351,28098,동구,대전칠보동화공방,대전광역시 동구 중앙로 지하 200,중동,127.431162001818,36.330664101385
1129,7352,30288,동구,대전카센터,대전광역시 동구 신기로 37 ,가오동,127.451036227583,36.3087638834844
1130,7362,34039,동구,대전컵쿤,대전광역시 동구 동서대로1695번길 43,용전동,127.43672038989,36.351370393007
1131,7363,36238,동구,대전케이모터스,대전광역시 동구 우암로 285 ,가양동,127.447280597491,36.3464897802872
1132,7367,20757,동구,대전타스,대전광역시 동구 한밭대로 1277 ,용전동,127.438442857499,36.3547349215684
1133,7373,11041,동구,대전태양침구,대전광역시 동구 동서대로 1623,홍도동,127.430717891738,36.3467569939492
1134,7383,33969,동구,대전펠릿과참숯 ,대전광역시 동구 우암로 77-1 ,삼성동,127.427076929627,36.3372660933776
1135,7384,24160,동구,대전포도나무한의원,대전광역시 동구 동부로73번길 20-7 ,용운동,127.46080887957,36.3234247258587
1136,7387,33890,동구,대전폴리텍대학 복지매정,대전광역시 동구 우암로 352-21,가양동,127.453757371833,36.3510398955929
1137,7393,22831,동구,대전한방,대전광역시 동구 대전로813번길 61 ,중동,127.429066956098,36.3307922180867
1138,7396,8081,동구,대전한약국,대전광역시 동구 대학로 62-10 ,용운동,127.457004456797,36.3353668399028
1139,7397,2675,동구,대전한우,대전광역시 동구 태전로 11,중동,127.430525429441,36.3316243463413
1140,7398,33804,동구,대전한우축산물,대전광역시 동구 동산초교로22번길 57 ,홍도동,127.42968353255,36.3476846911161
1141,7404,9513,동구,대전해송아동복지연구소,대전광역시 동구 용운로156번길 47-15 ,용운동,127.459537018864,36.3259157868993
1142,7408,26614,동구,대전혜광학교,대전광역시 동구 은어송로 111 ,가오동,127.459509732306,36.30967550861
1143,7409,26604,동구,대전혜광학교 학교기업 카페 뜰 2호점,대전광역시 동구 동산초교로 16,홍도동,127.427566805926,36.3460908974167
1144,7421,2453,동구,대종약국,대전광역시 동구 중앙로 209-1 ,중동,127.432128383776,36.3312854868889
1145,7422,1932,동구,대주 할인 마트,대전광역시 동구 동대전로248번길 19,가양동,127.448169833172,36.3441090630721
1146,7424,38357,동구,대주축산,대전광역시 동구 자양동 188-11,자양동,127.449281412302,36.3427085206206
1147,7425,443,동구,대주카 서비스,대전광역시 동구 동대전로 239,가양동,127.447477945409,36.3426651818767
1148,7426,34048,동구,대중기물,대전광역시 동구 중동 76번지,중동,0,0
1149,7431,2449,동구,대지 화원,대전광역시 동구 중앙로204번길 28-1 ,중동,127.432391875474,36.3296686348737
1150,7447,12408,동구,대창교재(지업사),대전광역시 동구 우암로50번길 10 ,삼성동,127.424703174025,36.3352690761565
1151,7448,4321,동구,대창농축 정육점,대전광역시 동구 역전시장길 8 ,정동,127.433731277703,36.3304560058946
1152,7451,18304,동구,대창모자점,대전광역시 동구 대전로791번길 19 ,중동,127.432111270939,36.3298202362399
1153,7452,4009,동구,대창목공기계,대전광역시 동구 대전로 770 ,원동,127.43438852352,36.3285740356335
1154,7453,30560,동구,대창서적문구오피스 ,대전광역시 동구 동구청로 35,대성동,127.458270508282,36.3037469941274
1155,7455,21268,동구,대창씽크산업,대전광역시 동구 산내로1337번길 29 ,낭월동,127.465109638524,36.2824301913899
1156,7457,20860,동구,대창종이재료,대전광역시 동구 태전로 70-25 ,삼성동,127.427972124903,36.3365732215291
1157,7459,26353,동구,대창침구,대전광역시 동구 원동 63,원동,0,0
1158,7463,2227,동구,대천철물,대전광역시 동구 석천로 12,낭월동,127.465403598796,36.2768054878984
1159,7471,36942,동구,대청상회,대전광역시 동구 은어송로 117,가오동,127.461544099826,36.310710875626
1160,7476,25525,동구,대청헤어샵,대전광역시 동구 판암로 19 ,판암동,127.462345939268,36.3178631268515
1161,7479,40135,동구,대청호반 사회적협동조합,대전광역시 동구 냉천로 34-8,마산동,127.484151402712,36.3861433282027
1162,7491,34258,동구,대패가1900 가양점,대전광역시 동구 우암로 201 ,가양동,127.439111918222,36.3425225585662
1163,7499,24190,동구,대패시대,대전광역시 동구 용운로 87,용운동,127.452033419269,36.327470090942
1164,7500,7472,동구,대패업소 성남점,대전광역시 동구 계족로 327-2,성남동,127.435152221668,36.3415140292819
1165,7511,7783,동구,대포떡볶이,대전광역시 동구 동대전로 134 ,자양동,127.445978312141,36.333997433344
1166,7517,6772,동구,대풍상회,대전광역시 동구 충무로 185 ,인동,127.436652059271,36.3217881267744
1167,7519,29459,동구,대풍종합상사,대전광역시 동구 중교로 133 ,원동,127.43357404059,36.3288924948173
1168,7533,7237,동구,대한공예자격협회,대전광역시 동구 합내로 20-1,가양동,127.440773715348,36.3449824132251
1169,7552,12824,동구,대한스포츠,대전광역시 동구 대성길 24 ,가양동,127.439275669066,36.3382587706784
1170,7553,12844,동구,대한스포츠,대전광역시 동구 동대전로 192-2,자양동,36.3455163,127.4458824
1171,7556,19084,동구,대한유통,대전광역시 동구 동대전로 108,대동,127.444670026611,36.3318778771761
1172,7560,21732,동구,대한종합상사,대전광역시 동구 산내로1287번길 60-8 ,낭월동,127.465781234662,36.2786789286805
1173,7561,11269,동구,대한종합에어컨,대전광역시 동구 가양남로 1 ,가양동,127.442383265959,36.3408457545389
1174,7568,16348,동구,대형상회,대전광역시 동구 역전시장길 30,정동,127.433983977181,36.3301529242344
1175,7571,25830,동구,대호가전,대전광역시 동구 계족로 114 ,대동,127.446107488146,36.3244787313849
1176,7577,19418,동구,대화싱크,대전광역시 동구 계족로417번길 50 ,홍도동,127.429173451865,36.34916967568
1177,7590,36606,동구,대흥사,대전광역시 동구 삼성동 125-7,삼성동,127.427434170535,36.3356610843507
1178,7591,39756,동구,대흥상사,대전광역시 동구 대전로 598-1,효동,127.441123337871,36.3141129601273
1179,7593,27475,동구,대흥상회,대전광역시 동구 중동 30-3 29,중동,0,0
1180,7594,3746,동구,대흥수산,대전광역시 동구 중동 75-8번지 외1필지,중동,0,0
1181,7612,20954,동구,댕블리,대전광역시 동구 우암로246번길 6 ,가양동,127.443659658777,36.3440036930909
1182,7614,39411,동구,댕큐베리마치2,대전광역시 동구 계족로491,용전동,127.432528189628,36.3556726997876
1183,7662,24351,동구,더 음악학원,대전광역시 동구 비래서로42번길 11,가양동,127.448980377734,36.3535650011759
1184,7671,14333,동구,더 헤어,대전광역시 동구 한밭대로1237번길 52,용전동,127.437456123496,36.358561220014
1185,7677,38282,동구,더(THE)맛있는김밥,대전광역시 동구 동대전로 152,자양동,127.446847177958,36.3354194864702
1186,7687,23023,동구,더(The)참마트,대전광역시 동구 동대전로144번길 7 ,자양동,127.446770615553,36.3346902715349
1187,7692,38276,동구,더감사(Flower Shop),대전광역시 동구 새울로 14 ,판암동,127.462203770091,36.3197360518182
1188,7694,18991,동구,더개편한세상,대전광역시 동구 한밭대로1237번길 5,용전동,127.435094780747,36.3573776815317
1189,7719,38667,동구,더달달리더스크림,대전광역시 동구 동부로73,판암동,127.458472364496,36.3231066737681
1190,7731,33510,동구,더드림약국,대전광역시 동구 동대전로46번길 11,대동,127.440299152951,36.3279195122874
1191,7732,11970,동구,더드림의료기,대전광역시 동구 계족로 150,대동,127.444359732299,36.3274848074155
1192,7734,39593,동구,더라운지,대전광역시 동구 동대전로 67,대동,127.441806693434,36.3294023319073
1193,7739,717,동구,더로비 테이블가든,대전광역시 동구 동서대로 1689,용전동,127.436693888994,36.350315576746
1194,7744,13803,동구,더리터 용전터미널점,대전광역시 동구 동서대로 1679,용전동,127.436049103898,36.3493796298443
1195,7747,16932,동구,더린넨2017대전가오점,대전광역시 동구 대전로 332,대성동,127.459855285202,36.2974897860106
1196,7748,38042,동구,더마니,대전광역시 동구 곤룡로 62,낭월동,127.475006895888,36.2795637384854
1197,7752,37980,동구,더멋짐피트니스,대전광역시 동구 동부로73번길 6,판암동,127.460859827566,36.3225449813787
1198,7765,6577,동구,더베스트 스터디카페 신흥점,대전광역시 동구 새들2길 30,신흥동,127.44258283517,36.3262283113564
1199,7767,39017,동구,더베이직안경원,대전광역시 동구 한밭대로 1322,용전동,127.441108557432,36.3513195797309
1200,7772,32020,동구,더본메디칼,대전광역시 동구 가양로62번길 72-4,가양동,127.445885517594,36.3433749507282
1201,7777,26759,동구,더봄개량한복,대전광역시 동구 중앙로200번길 40,원동,127.432006142463,36.3292367440967
1202,7801,18095,동구,더블유,대전광역시 동구 새울로 69,용운동,127.462017288931,36.3245738368891
1203,7809,28803,동구,더블유스터디카페,대전광역시 동구 우암로 159,성남동,127.435050357765,36.3406233187757
1204,7819,21344,동구,더빈스커피,대전광역시 동구 은어송로 42-25,가오동,127.455597923255,36.3054601669799
1205,7841,37061,동구,더스킨,대전광역시 동구 동대전로 61,대동,127.44138287765,36.3290398226211
1206,7842,26670,동구,더스타일,대전광역시 동구 동서대로1748번길 140,가양동,127.449637135519,36.3490526141035
1207,7849,34625,동구,더쎈피씨(PC),대전광역시 동구 산내로1257번길 72-33,낭월동,127.466044427676,36.2782986855793
1208,7851,10874,동구,더쎈피씨방가양점,대전광역시 동구 동대전로256번길 75,가양동,127.450573547056,36.3459928488921
1209,7863,40096,동구,더예쁨,대전광역시 동구 계족로 137,대동,127.443124606043,36.3272442729139
1210,7894,39554,동구,더존PC방,대전광역시 동구 한남로 11,홍도동,127.426933313223,36.3510331261279
1211,7897,39460,동구,더존코인노래연습장,대전광역시 동구 한남로11,홍도동,127.426933313223,36.3510331261279
1212,7898,36112,동구,더존피시방,대전광역시 동구 한남로 11,홍도동,127.426933313223,36.3510331261279
1213,7899,21955,동구,더좋은마트,대전광역시 동구 현암로48번길 47,삼성동,127.416066514463,36.3441696340729
1214,7910,16215,동구,더참마트,대전광역시 동구 동대전로144번길 7,자양동,127.446770615553,36.3346902715349
1215,7915,10285,동구,더치나인,대전광역시 동구 합내로 75,가양동,127.439819312944,36.3498612777149
1216,7921,13815,동구,더카페 대전복합터미널 이마트점,대전광역시 동구 동서대로 1689,용전동,127.436693888994,36.350315576746
1217,7933,32375,동구,더클래스학원,대전광역시 동구 대전로542번길 80-63,천동,127.447070485445,36.316369405053
1218,7939,37927,동구,더팜홈쿡 대전용운점,대전광역시 동구 용운로 203,용운동,127.464787200907,36.3273127654815
1219,7943,1232,동구,더펫 가오점,대전광역시 동구 은어송로 39,가오동,127.45418314173,36.3053269487318
